Time,Date,System Name,Longitude,Latitude,FP Height,Gnss Correction,H. Speed,Quality,systemTimeMs,gnssTime,latitudeDeg,longitudeDeg,altitude,rollDeg,pitchDeg,yawDeg,agl,hSpeed
1720289719810,2024-07-06,450,-67.40757959414046,52.79854416660704,594.8230342254639,5.43900000000001,2.4908561778679346,0.8988915285493579,1720289719800.0,1720289727.4273689,52.798544172594,-67.40757923973264,607.8594360351562,-5.311633586883545,-5.106941223144531,-89.77485656738281,3.15997314453125,2.4955253174026883
1720289720308,2024-07-06,200,-67.40759661520815,52.79854401216937,594.9839621068396,5.43900000000001,2.3144521076081657,0.948635862905428,1720289720301.0,1720289727.927552,52.79854401032169,-67.40759638044572,607.8400268554688,-3.0963211059570312,-5.529803276062012,-90.39320373535156,3.15997314453125,2.3182366729007087
1720289720808,2024-07-06,450,-67.40761303546812,52.79854428592421,594.791178756714,5.43900000000001,2.281034558758186,0.9581387981076686,1720289720800.0,1720289728.427549,52.79854428318876,-67.4076127766952,607.8373413085938,-7.047475337982178,-5.633233547210693,-90.7645492553711,3.16998291015625,2.280709061984568
1720289721310,2024-07-06,200,-67.40762890144582,52.798544147236655,594.9200047836304,5.43900000000001,2.299191353830166,0.9996771241332596,1720289721300.0,1720289728.9275331,52.79854415756783,-67.40762859409841,607.825927734375,-8.046828269958496,-5.281974315643311,-90.67537689208984,3.219970703125,2.299989656447867
1720289721810,2024-07-06,450,-67.4076439330697,52.798543284197045,594.7547175750733,5.43900000000001,2.2561103540877507,0.9093314093692542,1720289721800.0,1720289729.4273548,52.79854330838925,-67.4076436377865,607.80078125,-6.284555912017822,-5.665374755859375,-90.21929931640624,3.16998291015625,2.255429962478348
1720289722308,2024-07-06,200,-67.40765892480422,52.79854202655831,594.2922993621826,5.43900000000001,2.318500976078586,0.9339145965049516,1720289722300.0,1720289729.9278631,52.79854205065941,-67.40765868585655,607.8081665039062,-7.61574125289917,-6.417466163635254,-90.2679672241211,3.25,2.3174843899329227
1720289722810,2024-07-06,450,-67.407674310804,52.798540155885824,594.6986708984375,5.43900000000001,2.386731278494373,0.9244522376308908,1720289722800.0,1720289730.427352,52.79854019871656,-67.40767400194372,607.8194580078125,-5.7492499351501465,-5.879950523376465,-90.96376037597656,3.16998291015625,2.387661267688318
1720289723309,2024-07-06,200,-67.40768963769523,52.79853814507029,594.201785853068,5.43900000000001,2.322478060666421,0.9368040259159108,1720289723304.0,1720289730.927362,52.79853816427725,-67.40768947518949,607.8201293945312,-3.871118068695069,-6.027499675750732,-91.25234985351562,3.25,2.323948570461769
1720289723809,2024-07-06,450,-67.40770494871873,52.79853648268363,594.1363263854981,5.43900000000001,2.183112264587186,0.9911609506615976,1720289723800.0,1720289731.427279,52.79853650944256,-67.40770467573778,607.8292236328125,-5.998448848724365,-5.885867118835449,-91.54412841796876,3.21002197265625,2.180607317525587
1720289724309,2024-07-06,200,-67.40772038931517,52.79853500189278,594.1698081932068,5.43900000000001,2.2855863273018064,0.9701996980091934,1720289724300.0,1720289731.927285,52.79853502762807,-67.40772010387393,607.8186645507812,-5.973624706268311,-6.548710823059082,-91.61997985839844,3.219970703125,2.287219899561502
1720289724809,2024-07-06,450,-67.40773633553484,52.79853365061151,593.9132246946202,5.43900000000001,2.3168461421469937,0.9993360130809223,1720289724800.0,1720289732.427534,52.79853366894153,-67.40773604717636,607.8363647460938,-3.6242482662200928,-6.108744144439697,-91.18304443359376,3.16998291015625,2.318672194828629
1720289725309,2024-07-06,200,-67.40775257598611,52.79853284850032,593.9021895751954,5.43900000000001,2.2860000709408066,0.946433733431412,1720289725300.0,1720289732.927451,52.79853286161054,-67.40775227764485,607.85546875,-5.462225437164307,-6.168125629425049,-91.21186065673828,3.16998291015625,2.28484238174333
1720289725810,2024-07-06,450,-67.4077692101805,52.79853205010753,593.7065492973328,5.43900000000001,2.27018786468025,0.999390841240264,1720289725800.0,1720289733.427281,52.79853206748293,-67.40776887728337,607.8447265625,-5.408533096313477,-5.839653015136719,-91.62506103515624,3.16998291015625,2.2701157822016658
1720289726309,2024-07-06,200,-67.40778600865886,52.79853124953574,593.5950704536439,5.43900000000001,2.306737149293812,0.9592602612013464,1720289726301.0,1720289733.928009,52.79853126088924,-67.40778573329865,607.8090209960938,-4.771206855773926,-6.734199047088623,-91.57461547851562,3.15997314453125,2.305004418276233
1720289726809,2024-07-06,450,-67.40780306560069,52.79853047393984,593.153803630829,5.43900000000001,2.3072658821782337,0.941578306456752,1720289726800.0,1720289734.427279,52.79853048987858,-67.40780276206264,607.76318359375,-5.548042297363281,-5.282766342163086,-91.70539855957033,3.15997314453125,2.30664347324307
1720289727311,2024-07-06,200,-67.40781979314454,52.79852951777415,592.9852602309795,5.43900000000001,2.249871747323502,0.9901184196155656,1720289727304.0,1720289734.9273531,52.79852953172246,-67.40781955974728,607.7387084960938,-5.281604290008545,-4.772667407989502,-92.05709075927734,3.15997314453125,2.2532152505352845
1720289727809,2024-07-06,450,-67.407835955811,52.7985285298467,592.787790599823,5.43900000000001,2.17195618860736,0.9311039068326612,1720289727800.0,1720289735.427305,52.798528546692005,-67.40783566823788,607.74365234375,-4.07630729675293,-5.52212381362915,-91.6297378540039,3.15997314453125,2.1721886915589144
1720289728308,2024-07-06,200,-67.4078517965682,52.79852776519464,592.7483635673523,5.43900000000001,2.164927718906412,0.9642923046079488,1720289728300.0,1720289735.92731,52.79852777356032,-67.407851541777,607.7637329101562,-4.324465751647949,-5.955829620361328,-91.4390106201172,3.25,2.16502886658524
1720289728809,2024-07-06,450,-67.40786765294227,52.79852750007614,592.7243218574525,5.43900000000001,2.1616844520281084,0.9929797053512066,1720289728800.0,1720289736.4274628,52.79852749777989,-67.40786736742854,607.8136596679688,-3.9223928451538086,-5.690453052520752,-91.64453887939452,3.260009765625,2.161639888942197
1720289729308,2024-07-06,200,-67.40788383901565,52.79852762177725,593.1675313720704,5.43900000000001,2.3272683108195915,0.8426804978563519,1720289729300.0,1720289736.927242,52.79852762235358,-67.40788356660751,607.863037109375,-7.344232082366943,-6.510385036468506,-91.5109634399414,3.3499755859375,2.3264033477935744
1720289729809,2024-07-06,450,-67.40790127122516,52.79852730792779,592.7098711738587,5.43900000000001,2.344639646361105,0.9841512639269212,1720289729800.0,1720289737.427257,52.79852731696638,-67.40790095774965,607.8900756835938,-6.034905433654785,-4.253143310546875,-92.5205307006836,3.3499755859375,2.348430210973002
1720289730308,2024-07-06,200,-67.40791788869781,52.79852683548832,592.5318976552944,5.43900000000001,2.048796221440304,0.9982338654442446,1720289730301.0,1720289737.9277198,52.79852684164016,-67.40791767063862,607.9052734375,-5.958638668060303,-3.157327890396118,-93.27936553955078,3.28997802734375,2.0524718926944217
1720289730810,2024-07-06,450,-67.40793317084066,52.79852631001323,592.2271355018617,5.43900000000001,1.877932511442656,0.9446309719134556,1720289730800.0,1720289738.427244,52.79852632417574,-67.40793287889187,607.9132690429688,-6.970026016235352,-4.432159900665283,-93.80113983154295,3.3499755859375,1.8783043460466773
1720289731309,2024-07-06,200,-67.40794743533277,52.79852546621163,592.2618446884156,5.43900000000001,1.8291688091726293,0.9102035837461172,1720289731300.0,1720289738.927246,52.79852548507051,-67.40794718238587,607.9173583984375,-6.390403270721436,-5.310869693756104,-93.42897033691406,3.3499755859375,1.8282605821492988
1720289731809,2024-07-06,450,-67.40796180191516,52.798524246840486,591.7218967971802,5.43900000000001,2.091283133321855,0.9740526301619596,1720289731800.0,1720289739.427271,52.79852427179647,-67.40796152740695,607.9148559570312,-6.454897880554199,-7.6042680740356445,-91.98152923583984,3.3499755859375,2.086566191092162
1720289732809,2024-07-06,450,-67.40799374669622,52.7985213312171,592.0815083656311,5.43900000000001,2.195817463756557,0.8748373415369747,1720289732800.0,1720289740.427348,52.79852136934024,-67.4079934588783,607.9376220703125,-7.924700736999512,-5.075716018676758,-93.26434326171876,3.3800048828125,2.1960108080868066
1720289733309,2024-07-06,200,-67.40800932617113,52.79851904235411,592.3050716377412,5.43900000000001,2.13674840754636,0.9930331321361572,1720289733301.0,1720289740.9273589,52.79851908082904,-67.40800907646428,607.9064331054688,-4.21852445602417,-5.041134357452393,-92.96390533447266,3.29998779296875,2.138002390520004
1720289733809,2024-07-06,450,-67.40802480125836,52.798517051886485,592.1536409339905,5.43900000000001,2.0856276600509145,0.9979416692183074,1720289733800.0,1720289741.427218,52.79851707602793,-67.40802452318403,607.8925170898438,-2.079763174057007,-5.124341011047363,-91.88335418701172,3.260009765625,2.0879089357511784
1720289734293,2024-07-06,200,-67.40803993656904,52.79851598815844,591.1730777602243,5.43900000000001,2.1383990324905118,0.959951180926851,1720289734301.0,1720289741.927656,52.798515974724296,-67.40804018966769,607.8762817382812,-2.0793375968933105,-6.595310211181641,-91.5592269897461,3.25,2.1394253453848604
1720289734809,2024-07-06,450,-67.40805648876163,52.79851548684732,590.7822748718262,5.43900000000001,2.121866509099441,0.9942730947785068,1720289734800.0,1720289742.427213,52.79851549146162,-67.4080562036406,607.875732421875,-3.884876012802124,-4.861727237701416,-92.2191390991211,3.25,2.1257856371851336
1720289735310,2024-07-06,200,-67.40807227296862,52.798515161697,591.0481700286865,5.43900000000001,2.062527058792025,0.9172770019668312,1720289735300.0,1720289742.927382,52.79851516893813,-67.40807196164818,607.864013671875,-4.041223526000977,-6.5137553215026855,-93.82351684570312,3.25,2.0617250008236976
1720289735793,2024-07-06,450,-67.40808720870517,52.79851467272752,590.8957961348716,5.43900000000001,2.094956831024925,0.9426307807888724,1720289735800.0,1720289743.427188,52.79851466354777,-67.4080874230253,607.8536987304688,-4.807509899139404,-7.306713581085205,-94.59622955322266,3.1595458984375,2.095556015194712
1720289736309,2024-07-06,200,-67.40810332119264,52.798513561775074,590.8502897796631,5.43900000000001,2.12725521118088,0.9885382964647572,1720289736300.0,1720289743.927317,52.798513586657336,-67.40810304477523,607.8169555664062,-3.6343047618865967,-6.349789142608643,-95.13607788085938,3.15997314453125,2.1285951620644625
1720289736810,2024-07-06,450,-67.40811828488053,52.79851206042996,590.5729304656983,5.43900000000001,1.9929832574117616,0.9904507107431058,1720289736800.0,1720289744.427286,52.798512091646415,-67.40811799378673,607.7865600585938,-2.009085178375244,-6.9051947593688965,-95.1964340209961,3.15997314453125,1.994156675611347
1720289737293,2024-07-06,200,-67.40813259040318,52.79851054082672,590.6542617568971,5.43900000000001,2.063978389282322,0.7471539273132226,1720289737300.0,1720289744.92724,52.79851051825837,-67.40813280273677,607.7627563476562,-1.330707550048828,-7.570094108581543,-95.09942626953124,3.15997314453125,2.0644155739116714
1720289737810,2024-07-06,450,-67.40814806935862,52.79850920978821,590.5352353439331,5.43900000000001,2.021917420229253,0.998915767260772,1720289737800.0,1720289745.4271228,52.79850922659606,-67.40814776811317,607.7711791992188,-0.1229646056890487,-8.757713317871094,-94.9145736694336,3.15997314453125,2.021053492295004
1720289738308,2024-07-06,200,-67.4081632077382,52.79850857037484,590.9392666397096,5.43900000000001,2.0858925290827504,0.9320353872103684,1720289738301.0,1720289745.927555,52.79850857581485,-67.40816299093477,607.77783203125,-1.6189863681793213,-9.888492584228516,-94.98369598388672,3.15997314453125,2.086488420356896
1720289738809,2024-07-06,450,-67.40817895295079,52.79850833280514,591.0461789093018,5.43900000000001,2.1843838214959868,0.994783482002789,1720289738800.0,1720289746.4271429,52.79850833465281,-67.4081786591115,607.7579956054688,-1.5631916522979736,-10.500758171081545,-95.2282485961914,3.15997314453125,2.1824659014404646
1720289739310,2024-07-06,200,-67.40819569721307,52.798508223564255,590.928809867859,5.43900000000001,2.294809609396743,0.984047431655826,1720289739300.0,1720289746.927125,52.7985082239774,-67.40819534981817,607.73046875,-0.6181476712226868,-11.03200340270996,-95.09269714355467,3.15997314453125,2.290574078832246
1720289739809,2024-07-06,450,-67.40821343583718,52.79850835600037,590.9922647247315,5.43900000000001,2.448016717443389,0.9670392188218666,1720289739800.0,1720289747.427102,52.79850835312068,-67.40821310316065,607.6901245117188,-2.3605213165283203,-10.699371337890623,-94.53702545166016,3.14910888671875,2.444400235006348
1720289740310,2024-07-06,200,-67.40823239299402,52.79850858627175,590.0587922439576,5.43900000000001,2.539839041703024,0.9891735899875844,1720289740300.0,1720289747.9272242,52.798508578187786,-67.4082320076456,607.6381225585938,-1.4625091552734375,-9.459954261779783,-93.59461975097656,3.05999755859375,2.5412479474257585
1720289740809,2024-07-06,450,-67.40825145662329,52.79850912560336,589.75748021698,5.43900000000001,2.4323172141055003,0.8781279140482157,1720289740800.0,1720289748.427145,52.7985091140016,-67.40825111837114,607.6010131835938,-1.4678884744644165,-7.911530494689941,-93.72785949707033,3.010009765625,2.4333301719371945
1720289741310,2024-07-06,200,-67.40826975612387,52.79850958272176,589.848539100647,5.43900000000001,2.3200194302858645,0.9528991421032096,1720289741300.0,1720289748.927187,52.7985095784987,-67.40826939546977,607.59423828125,-2.872793436050415,-8.355741500854492,-94.310546875,2.97998046875,2.3204874277049194
1720289741810,2024-07-06,450,-67.40828738104865,52.79850957999296,589.3892304763795,5.43900000000001,2.249448327263185,0.96945912196396,1720289741800.0,1720289749.427108,52.79850958368156,-67.4082870336694,607.6015014648438,-1.6224526166915894,-8.871894836425781,-94.02740478515624,3.010009765625,2.2480479235173
1720289742310,2024-07-06,200,-67.40830466222212,52.79850928560433,590.0988772354126,5.43900000000001,2.269487365956096,0.9780647874746392,1720289742301.0,1720289749.9275331,52.79850929618155,-67.4083043505659,607.5933227539062,-2.6235175132751465,-8.556868553161621,-94.02828979492188,3.0,2.2688722083002766
1720289742809,2024-07-06,450,-67.4083216010856,52.79850851686045,589.4059480056764,5.43900000000001,2.247699516790852,0.977848835034136,1720289742800.0,1720289750.427146,52.798508534132445,-67.40832130049684,607.5755004882812,-1.7488291263580322,-7.52502965927124,-93.37281799316406,2.969970703125,2.2497856724081826
1720289743310,2024-07-06,200,-67.4083383057644,52.79850748827288,589.7786826477052,5.43900000000001,2.1904500493243058,0.9403161025118236,1720289743300.0,1720289750.9271228,52.79850750958587,-67.40833797206935,607.5668334960938,-1.0066664218902588,-7.769510269165039,-92.5168228149414,2.969970703125,2.1899476821002195
1720289743809,2024-07-06,450,-67.4083547409778,52.7985064468497,589.5791672286988,5.43900000000001,2.165410597532258,0.992013231567916,1720289743801.0,1720289751.427786,52.79850646261684,-67.40835447906198,607.5726318359375,-0.8433338403701782,-8.311057090759277,-92.87159729003906,2.97998046875,2.164984416326494
1720289744810,2024-07-06,450,-67.4083875906957,52.79850476394824,589.2982341156007,5.43900000000001,2.19861239884648,0.94819118958575,1720289744800.0,1720289752.427187,52.798504777428974,-67.408387262789,607.593505859375,-0.2373334169387817,-8.097173690795898,-93.69995880126952,3.05999755859375,2.1980580724427288
1720289745309,2024-07-06,200,-67.4084038112323,52.798504217759366,589.4062298736573,5.43900000000001,2.1427303525499948,0.955655329776871,1720289745300.0,1720289752.9270551,52.79850422428986,-67.40840352106473,607.6139526367188,-0.180204227566719,-7.950404167175293,-93.82363891601562,3.05999755859375,2.1433901042139043
1720289745810,2024-07-06,450,-67.40841982996578,52.79850404247375,589.0486502990723,5.43900000000001,2.096147136670984,0.9367995654091764,1720289745800.0,1720289753.4270542,52.79850404042236,-67.40841951228089,607.6528930664062,-0.0914257913827896,-8.167275428771973,-93.91912841796876,3.07000732421875,2.095747893868167
1720289746309,2024-07-06,200,-67.40843558629,52.79850424929218,589.3827530392184,5.43900000000001,2.0706454751714856,0.937537515583422,1720289746300.0,1720289753.9273531,52.79850424514056,-67.40843530692484,607.7024536132812,-1.1495906114578247,-7.676255702972412,-93.9475555419922,3.0999755859375,2.070851979876408
1720289746810,2024-07-06,450,-67.40845133166637,52.798504519125466,589.6972569808961,5.43900000000001,2.1342536149800497,0.9563904212791886,1720289746800.0,1720289754.427105,52.7985045115386,-67.40845100738005,607.7279663085938,-0.87025386095047,-9.190492630004885,-94.06802368164062,3.15997314453125,2.132396088162966
1720289747310,2024-07-06,200,-67.40846759867486,52.79850502646414,589.5803960016424,5.43900000000001,2.1652234837781177,0.9677262685010076,1720289747301.0,1720289754.927024,52.79850501610853,-67.40846730248116,607.7611083984375,-1.2622803449630735,-8.543940544128418,-93.95846557617188,3.15997314453125,2.1651991221530347
1720289747810,2024-07-06,450,-67.40848411417603,52.79850546043935,589.7323899265635,5.43900000000001,2.216393482459389,0.9870817876297668,1720289747801.0,1720289755.42766,52.798505457060486,-67.40848381426665,607.763671875,-2.3362247943878174,-9.09468936920166,-93.8271255493164,3.15997314453125,2.213203639560044
1720289748310,2024-07-06,200,-67.40850124426379,52.79850550398636,591.9256893501282,5.43900000000001,2.299247986063356,0.9713609408447372,1720289748300.0,1720289755.927003,52.79850550763306,-67.40850089292917,607.7320556640625,-2.6396870613098145,-8.815502166748047,-93.42047119140624,3.1500244140625,2.298155527425035
1720289748809,2024-07-06,450,-67.40851902442985,52.79850517640748,592.5092295417786,5.43900000000001,2.360493583274339,0.954279321182459,1720289748800.0,1720289756.427032,52.79850518391056,-67.40851869897725,607.683837890625,-1.5908925533294678,-8.5927152633667,-93.05034637451172,3.05999755859375,2.361456245290933
1720289749309,2024-07-06,200,-67.40853715838105,52.798504705278525,590.3337548599243,5.43900000000001,2.3579130503792847,0.8935089890360969,1720289749300.0,1720289756.927045,52.79850471548339,-67.40853682737017,607.6422729492188,-1.7421033382415771,-8.000700950622559,-92.89097595214844,3.05938720703125,2.3590468188879377
1720289749809,2024-07-06,450,-67.4085554408544,52.7985040523136,588.8293255386353,5.43900000000001,2.3034082495166115,0.8252737773586357,1720289749800.0,1720289757.427102,52.79850406677158,-67.40855511719542,607.612548828125,-1.9194281101226809,-7.353766918182373,-92.78353881835938,2.989990234375,2.304834732485759
1720289750310,2024-07-06,200,-67.40857336671255,52.798503173788376,588.6159568421771,5.43900000000001,2.2229409134646034,0.9691994969622876,1720289750300.0,1720289757.927325,52.79850319179093,-67.40857301471064,607.582275390625,-1.039130687713623,-7.27128267288208,-92.81051635742188,2.969970703125,2.2247184747365893
1720289750809,2024-07-06,450,-67.40859075185288,52.79850234985307,588.1337429962159,5.43900000000001,2.164477517299772,0.9696956008155772,1720289750800.0,1720289758.42702,52.79850236260297,-67.40859044233228,607.5723266601562,-0.8835266828536987,-6.5562663078308105,-93.1101531982422,2.969970703125,2.1645417204965214
1720289751311,2024-07-06,200,-67.40860768320523,52.79850163837176,588.7820077902285,5.43900000000001,2.0828056580147463,0.961243755239925,1720289751301.0,1720289758.92709,52.79850165086035,-67.40860735056943,607.5759887695312,-0.7786805629730225,-6.399787902832031,-93.52637481689452,2.969970703125,2.0844561374304105
1720289751810,2024-07-06,450,-67.40862363878682,52.798501117959454,588.0686404571534,5.43900000000001,1.9965376507805508,0.9875066709230405,1720289751800.0,1720289759.426956,52.79850112745137,-67.40862332765077,607.59716796875,-1.124608278274536,-6.323783874511719,-93.9372329711914,3.06036376953125,1.997129197013295
1720289752309,2024-07-06,200,-67.40863923564136,52.79850072660902,588.1510633621216,5.43900000000001,2.0596135310709025,0.9437602882676054,1720289752300.0,1720289759.9269829,52.798500730167774,-67.40863894857837,607.6187744140625,0.2171735316514969,-8.233973503112793,-93.54456329345705,3.05999755859375,2.0575104337536225
1720289753310,2024-07-06,200,-67.40867089914687,52.79850061056902,588.6250451431275,5.43900000000001,2.0229205839656323,0.9802693078555106,1720289753300.0,1720289760.926893,52.79850061296738,-67.40867058259307,607.6849975585938,-1.927847981452942,-7.837505340576172,-92.7652587890625,3.12030029296875,2.019505343913396
1720289753809,2024-07-06,450,-67.40868711316092,52.79850052146597,587.569083114624,5.43900000000001,2.198103549115598,0.953645095303492,1720289753800.0,1720289761.426892,52.798500521440594,-67.40868681183721,607.695068359375,-1.29323148727417,-7.865294933319092,-91.6103973388672,3.1500244140625,2.198232833758214
1720289754810,2024-07-06,450,-67.40872062858709,52.79849985329079,587.6480052337647,5.43900000000001,2.19739748855511,0.9963896215518862,1720289754800.0,1720289762.427,52.79849986868298,-67.40872029170643,607.6941528320312,-2.24865198135376,-6.972710132598877,-92.30310821533205,3.07000732421875,2.1984798993552266
1720289755309,2024-07-06,200,-67.40873724055623,52.79849894885988,588.1078915939332,5.43900000000001,2.101135025202231,0.9945167530626176,1720289755300.0,1720289762.927027,52.7984989675297,-67.40873694858395,607.6817626953125,-1.6542571783065796,-5.743169784545898,-93.04808807373048,3.05999755859375,2.102327594447724
1720289755809,2024-07-06,450,-67.40875315302854,52.798497914383525,586.5376312705147,5.43900000000001,2.030582032098027,0.9577853600371172,1720289755801.0,1720289763.4275331,52.7984979296339,-67.40875290562472,607.663818359375,-0.8450629115104675,-6.002574920654297,-93.13148498535156,3.05999755859375,2.0321906869820703
1720289756309,2024-07-06,200,-67.40876856963726,52.798497141141056,586.9639595947266,5.43900000000001,1.9078218205061304,0.9338671924122124,1720289756300.0,1720289763.926859,52.798497151736726,-67.40876830105402,607.6751708984375,-0.5044713020324707,-4.880867958068848,-93.12433624267578,3.05999755859375,1.9103982954995
1720289756810,2024-07-06,450,-67.40878302103636,52.79849665658105,586.8218495712281,5.43900000000001,1.7984903033045292,0.992396636344798,1720289756800.0,1720289764.426942,52.79849666578966,-67.40878273954947,607.6971435546875,-1.3789923191070557,-6.409538269042969,-93.13908386230467,3.07000732421875,1.7967105614716812
1720289757310,2024-07-06,200,-67.40879715696336,52.79849619682797,586.7174340591431,5.43900000000001,1.8876490459539423,0.9422839907445252,1720289757300.0,1720289764.926848,52.798496206634304,-67.40879686773002,607.7092895507812,-1.3223720788955688,-7.577084064483643,-93.03996276855467,3.1201171875,1.8856486716014675
1720289757811,2024-07-06,450,-67.40881175518558,52.79849568805997,586.1476671571828,5.43900000000001,1.9510944754224115,0.8858504806061926,1720289757801.0,1720289765.426947,52.79849569918984,-67.40881145693858,607.7313842773438,-1.4440298080444336,-7.838295936584473,-93.48722839355467,3.15997314453125,1.9492071414947936
1720289758309,2024-07-06,200,-67.40882646260224,52.79849514798355,586.5521060714723,5.43900000000001,1.9809419800597072,0.9631213472694772,1720289758301.0,1720289765.927234,52.79849515593152,-67.4088262255441,607.755126953125,-1.3306456804275513,-8.012102127075195,-94.43004608154295,3.15997314453125,1.979846292790947
1720289758810,2024-07-06,450,-67.40884149115656,52.79849462630386,586.2874684677124,5.43900000000001,2.0928417221933517,0.9549355258053348,1720289758800.0,1720289766.426949,52.79849463589299,-67.40884117737728,607.7611083984375,-0.5451846122741699,-9.749032020568848,-94.7750473022461,3.219970703125,2.0888619158828354
1720289759309,2024-07-06,200,-67.40885759838055,52.79849421427435,586.286355796814,5.43900000000001,2.240726846545941,0.9811039607819744,1720289759300.0,1720289766.926862,52.79849422047742,-67.4088573002306,607.7589721679688,-0.2155918478965759,-8.728707313537598,-94.54747772216795,3.15997314453125,2.239058784466652
1720289759809,2024-07-06,450,-67.40887429330485,52.7984940115485,586.2381923122985,5.43900000000001,2.2617311860124145,0.9976493309271066,1720289759801.0,1720289767.427462,52.79849401358598,-67.40887402566551,607.763916015625,-1.1794193983078003,-8.425293922424316,-94.2346420288086,3.15997314453125,2.2602078523625235
1720289760810,2024-07-06,450,-67.40891023763004,52.798493790616334,586.2447804100731,5.43900000000001,2.4818925433348538,0.9948570862035226,1720289760801.0,1720289768.426909,52.79849379021078,-67.40890990007074,607.7156372070312,-0.992116153240204,-7.116022109985352,-92.51419830322266,3.0999755859375,2.483413858426113
1720289761309,2024-07-06,200,-67.40892857075346,52.798493722095934,586.108933769226,5.43900000000001,2.3683407986710217,0.9000351304338349,1720289761300.0,1720289768.926824,52.798493726473154,-67.40892824431104,607.69482421875,-2.1072046756744385,-6.052935600280762,-92.4751434326172,3.0699462890625,2.3692530783237844
1720289761809,2024-07-06,450,-67.40894647827895,52.79849345827149,586.042746749878,5.43900000000001,2.317661477346792,0.985178805073564,1720289761800.0,1720289769.426816,52.79849345959566,-67.40894615584493,607.7005004882812,-0.285531997680664,-7.549295425415039,-92.73420715332033,3.1400146484375,2.3182093431723207
1720289762309,2024-07-06,200,-67.40896405328051,52.79849350168632,585.9276300254294,5.43900000000001,2.170899231061352,0.9980023830197906,1720289762300.0,1720289769.9271748,52.798493502018175,-67.40896375413925,607.7423706054688,-1.5919561386108398,-3.933565855026245,-93.9728775024414,3.15997314453125,2.174069047278095
1720289762810,2024-07-06,450,-67.40898001368225,52.79849349163575,585.5138507232667,5.43900000000001,2.0017169192837168,0.8760266220736166,1720289762800.0,1720289770.426841,52.79849348511126,-67.40897970227262,607.7933959960938,1.056337594985962,-6.313084602355957,-93.5964584350586,3.16064453125,1.9978077228436184
1720289763310,2024-07-06,200,-67.40899589933983,52.79849442362775,585.6661624298097,5.43900000000001,2.1654010717718624,0.8840069479972369,1720289763300.0,1720289770.926808,52.798494389072765,-67.40899558024937,607.8457641601562,1.494480013847351,-5.894122123718262,-92.06764221191406,3.260009765625,2.165919327981356
1720289763810,2024-07-06,450,-67.40901146968493,52.798496394325866,585.2536657069813,5.43900000000001,2.0402741452440787,0.9653125484844732,1720289763801.0,1720289771.427437,52.79849636342135,-67.40901120691294,607.9135131835938,-4.748907089233398,-3.958018779754639,-91.45123291015624,3.3499755859375,2.046205980774263
1720289765310,2024-07-06,200,-67.40905361674245,52.79849678061817,585.7220167243265,5.43900000000001,2.0379873443992604,0.82304748983716,1720289765301.0,1720289772.926856,52.79849680433285,-67.40905334338876,608.0626220703125,-4.347482204437256,-10.288639068603516,-94.4201431274414,3.54058837890625,2.033589244091653
1720289766310,2024-07-06,200,-67.40908539918853,52.79849399019946,585.0069781646729,5.43900000000001,2.2835137863266284,0.8823221446955427,1720289766300.0,1720289773.927014,52.798494022054335,-67.40908506001706,608.1900024414062,-4.313558578491211,-8.461739540100098,-94.2725830078125,3.6400146484375,2.2795841003448367
1720289766810,2024-07-06,450,-67.40910254634788,52.79849245366376,584.991315208435,5.43900000000001,2.31565575418321,0.8892091770720923,1720289766800.0,1720289774.426808,52.79849248239695,-67.4091021962544,608.2048950195312,-3.792062997817993,-6.244640350341797,-93.94749450683594,3.640380859375,2.31551802079893
1720289767309,2024-07-06,200,-67.40912010757589,52.79849103028358,585.2850836334229,5.43900000000001,2.3451009098636844,0.9535575449045746,1720289767300.0,1720289774.926708,52.79849105415333,-67.4091197853946,608.2037963867188,-3.905249118804932,-6.705437183380127,-93.67294311523438,3.6300048828125,2.344583388890335
1720289768310,2024-07-06,200,-67.4091558963471,52.7984887159506,586.7648846969605,5.43900000000001,2.291003220737084,0.822464443880565,1720289768300.0,1720289775.926705,52.798488734322575,-67.40915553982325,608.1712646484375,-3.586277484893799,-6.017767429351807,-93.89271545410156,3.6300048828125,2.2927567013972445
1720289768809,2024-07-06,450,-67.40917343536495,52.79848792945887,585.0410533676148,5.43900000000001,2.2339391544553084,0.9423851998303524,1720289768800.0,1720289776.42685,52.798487942182334,-67.40917312531376,608.1550903320312,-3.92623782157898,-5.657283782958984,-93.70118713378906,3.53997802734375,2.235740932580527
1720289770309,2024-07-06,200,-67.40922446094625,52.79848577888819,585.1285998442245,5.43900000000001,2.16440088886318,0.99881834322746,1720289770300.0,1720289777.927038,52.79848578991948,-67.40922416864703,608.054931640625,-3.9894845485687256,-6.454362392425537,-92.51451873779295,3.45001220703125,2.164111789024381
1720289770810,2024-07-06,450,-67.40924084827013,52.79848517133215,584.9953124389649,5.43900000000001,2.2014110638960105,0.9997806834574164,1720289770800.0,1720289778.426778,52.798485185938056,-67.40924051684036,607.9910888671875,-4.826085567474365,-7.449902534484863,-92.27069854736328,3.35888671875,2.200181412038217
1720289771310,2024-07-06,200,-67.40925742254761,52.79848424155511,585.3044080426056,5.43900000000001,2.21829147585818,0.9583715337302052,1720289771300.0,1720289778.926767,52.79848426249912,-67.40925709458465,607.9119873046875,-3.305628776550293,-7.178618431091309,-91.76724243164062,3.33001708984375,2.219172925875295
1720289771810,2024-07-06,450,-67.40927380819815,52.79848328805417,585.3506472757513,5.43900000000001,2.175884285574857,0.9678243811490972,1720289771801.0,1720289779.427308,52.79848330126656,-67.40927352154326,607.8447265625,-2.327097177505493,-6.958957195281982,-91.5581283569336,3.25,2.178229903515431
1720289772309,2024-07-06,200,-67.40928986535062,52.79848256419087,585.6850363693238,5.43900000000001,2.131538746603826,0.9702255035727192,1720289772300.0,1720289779.926701,52.798482577775495,-67.40928957700633,607.8189697265625,-3.456334114074707,-6.829342842102051,-91.99163055419922,3.25,2.1309119714198244
1720289773309,2024-07-06,200,-67.4093221535251,52.79848071575185,585.3833133468629,5.43900000000001,2.2339479127508537,0.9986539679034828,1720289773300.0,1720289780.926683,52.79848073564845,-67.40932185954703,607.7868041992188,-2.6239702701568604,-7.431248664855957,-92.76309204101562,3.24969482421875,2.236230668922979
1720289773810,2024-07-06,450,-67.40933841780219,52.79847957223346,584.977986656189,5.43900000000001,2.1929360666372064,0.992013231567916,1720289773800.0,1720289781.426628,52.798479594495525,-67.40933809501755,607.7656860351562,-1.5562913417816162,-7.082906723022461,-92.6993179321289,3.17999267578125,2.193217654675517
1720289774309,2024-07-06,200,-67.40935463326872,52.79847849321754,585.8620819916872,5.43900000000001,2.2151146632372902,0.8636208387206596,1720289774303.0,1720289781.926992,52.79847850699035,-67.40935442950486,607.7556762695312,-2.067618131637573,-7.414131164550781,-93.44778442382812,3.15997314453125,2.2144102181241427
1720289775309,2024-07-06,200,-67.40938622730769,52.79847611818685,587.2010506591797,5.43900000000001,1.9485166053827343,0.9494165360248704,1720289775300.0,1720289782.92667,52.79847613479287,-67.409385962747,607.7811279296875,-0.1958132982254028,-5.6980061531066895,-91.73902130126952,3.25,1.9530568332968528
1720289775809,2024-07-06,450,-67.40940047824154,52.79847550997385,584.9652345008465,5.43900000000001,1.789658950301581,0.9209410333268186,1720289775801.0,1720289783.427284,52.79847551609002,-67.4094002630926,607.832763671875,-1.0559439659118652,-5.912240982055664,-91.80684661865234,3.260009765625,1.7910001396870268
1720289776310,2024-07-06,200,-67.40941385229915,52.798475198200165,585.5238160476686,5.43900000000001,1.7643897692940635,0.953053630462963,1720289776300.0,1720289783.926717,52.7984752028586,-67.40941358861078,607.9069213867188,-1.0732407569885254,-7.59855318069458,-93.54476928710938,3.35089111328125,1.765070966563631
1720289776810,2024-07-06,450,-67.40942725958165,52.798474979924585,585.1321488723755,5.43900000000001,1.9407510653061089,0.8955737098810842,1720289776800.0,1720289784.426599,52.7984749847569,-67.40942697489916,607.9451293945312,-1.7600021362304688,-10.146646499633787,-94.57816314697266,3.3900146484375,1.9352991807772584
1720289777309,2024-07-06,200,-67.40944199435337,52.79847472994904,585.3920066986085,5.43900000000001,2.219799946890387,0.8853917248586777,1720289777300.0,1720289784.926621,52.7984747330069,-67.40944171001107,607.9478149414062,-0.6179239749908447,-10.234234809875488,-94.4876480102539,3.349853515625,2.217958973063206
1720289777809,2024-07-06,450,-67.40945822544042,52.798474513418185,585.446887260437,5.43900000000001,2.306480960953197,0.997418156322508,1720289777800.0,1720289785.426723,52.79847452118828,-67.40945792693753,607.9429321289062,-1.999611496925354,-8.28922176361084,-94.25401306152344,3.3499755859375,2.305847760262311
1720289778310,2024-07-06,200,-67.4094750261689,52.7984739698873,585.3619235929735,5.43900000000001,2.2897378302263443,0.9901203248015878,1720289778300.0,1720289785.9268422,52.79847398243838,-67.40947468709845,607.9330444335938,-1.384946584701538,-8.252392768859863,-94.01998901367188,3.33001708984375,2.288751373023762
1720289778815,2024-07-06,450,-67.40949208753709,52.798473345115,585.3263803574412,5.43900000000001,2.289199539464458,0.945199858418312,1720289778805.0,1720289786.4266372,52.79847335671162,-67.40949172524834,607.9044799804688,-0.5733994841575623,-8.624610900878906,-93.8566665649414,3.2894287109375,2.288559856377417
1720289779309,2024-07-06,200,-67.409509223144,52.798472907643216,585.4428033218385,5.43900000000001,2.2211947736792634,0.8856290640190984,1720289779300.0,1720289786.926672,52.79847291282924,-67.40950891799574,607.8935546875,-0.6865625977516174,-7.327608108520508,-93.87974548339844,3.260009765625,2.2225428067678554
1720289779810,2024-07-06,450,-67.40952587609443,52.79847274964849,585.3658628026789,5.43900000000001,2.106800594133388,0.9889754224547088,1720289779801.0,1720289787.427201,52.79847275005639,-67.40952558708184,607.9166259765625,-0.5741637349128723,-7.530708789825439,-94.72799682617188,3.260009765625,2.109505295000277
1720289780809,2024-07-06,450,-67.40955823642358,52.79847302798001,585.3577182159424,5.43900000000001,2.1725108433971774,0.9743640505160144,1720289780800.0,1720289788.4265978,52.79847302347404,-67.4095579430778,607.8994750976562,-1.8348116874694824,-9.584794998168944,-94.6741714477539,3.25,2.1709422763433466
1720289781309,2024-07-06,200,-67.40957453907268,52.798473200532456,585.4704962310792,5.43900000000001,2.1997726179357384,0.9935137511524968,1720289781300.0,1720289788.926646,52.7984731999332,-67.4095742391213,607.8603515625,-2.163455009460449,-10.017823219299316,-94.22008514404295,3.2098388671875,2.199880878090793
1720289782309,2024-07-06,200,-67.40960767343276,52.79847280339471,585.684324661255,5.43900000000001,2.2115068618548777,0.9802727385425956,1720289782301.0,1720289789.926843,52.7984728055055,-67.40960740299184,607.80078125,-2.055515766143799,-9.75801944732666,-94.15443420410156,3.15997314453125,2.209452219746325
1720289782808,2024-07-06,450,-67.4096247065757,52.79847270911556,585.7555352554322,5.43900000000001,2.328756368456998,0.9975823928918024,1720289782800.0,1720289790.426561,52.79847271061675,-67.4096244269989,607.7516479492188,-2.0700619220733643,-10.4913969039917,-93.2691879272461,3.0692138671875,2.329387097954095
1720289783309,2024-07-06,200,-67.40964253974016,52.79847258852823,585.336731429313,5.43900000000001,2.3395743514358243,0.9750165609574049,1720289783300.0,1720289790.9266188,52.79847259191551,-67.40964222465084,607.7305297851562,-2.8845009803771973,-9.283820152282717,-92.87486267089844,3.05999755859375,2.339671161231662
1720289783809,2024-07-06,450,-67.40966017771837,52.79847232113494,585.004483054036,5.43900000000001,2.2121407013773267,0.9877378455557236,1720289783801.0,1720289791.4271,52.79847232736118,-67.40965991145117,607.7188720703125,-2.4307827949523926,-7.665214061737059,-93.0547332763672,3.030029296875,2.2162378258815063
1720289784309,2024-07-06,200,-67.40967663657503,52.79847190996625,585.2833541641236,5.43900000000001,2.066218471287467,0.9902717063395332,1720289784300.0,1720289791.926566,52.798471917150415,-67.40967634416403,607.707275390625,-2.4879603385925293,-9.13973617553711,-93.4085922241211,3.0697021484375,2.066752284549606
1720289784809,2024-07-06,450,-67.40969260769981,52.79847157155431,584.3237609252931,5.43900000000001,2.01084730457628,0.8005867636514779,1720289784800.0,1720289792.426548,52.79847157825039,-67.40969232736757,607.7023315429688,-3.4085693359375,-9.542473793029783,-93.98405456542967,3.15997314453125,2.013060466500281
1720289785308,2024-07-06,200,-67.40970805351539,52.79847121272935,584.9151722106934,5.43900000000001,1.9598625746306884,0.9874703741278412,1720289785300.0,1720289792.926591,52.79847121824449,-67.40970780747634,607.7460327148438,-3.060093879699707,-9.73060131072998,-94.44444274902344,3.16082763671875,1.959309859510666
1720289785809,2024-07-06,450,-67.40972341625277,52.79847078267685,585.0765358266349,5.43900000000001,2.026128683020934,0.9567753669393552,1720289785801.0,1720289793.427246,52.79847079155544,-67.40972316320864,607.7954711914062,-3.185521364212036,-11.163643836975098,-94.9149398803711,3.25,2.025004740222764
1720289787310,2024-07-06,200,-67.40977274847856,52.798468863941615,584.9915981722746,5.43900000000001,2.272220683857998,0.9987696585583438,1720289787301.0,1720289794.92657,52.79846887705261,-67.40977243766874,607.854736328125,-3.420555591583252,-9.645666122436523,-92.46448516845705,3.260009765625,2.271531381251578
1720289787811,2024-07-06,450,-67.40978977755542,52.79846808314136,584.4575398788453,5.43900000000001,2.2658082623350984,0.9734887254946828,1720289787801.0,1720289795.427135,52.79846810012467,-67.40978943948078,607.8582763671875,-3.3791768550872803,-9.168974876403809,-92.57453918457033,3.260009765625,2.268412811731469
1720289788309,2024-07-06,200,-67.40980647287152,52.79846723520668,584.8616143951417,5.43900000000001,2.2297178937302533,0.9926699051797352,1720289788300.0,1720289795.926558,52.79846725092314,-67.40980616967047,607.8424682617188,-2.747763156890869,-9.33907699584961,-92.870361328125,3.24969482421875,2.229438002470629
1720289788809,2024-07-06,450,-67.40982310061406,52.79846639730796,584.3026754850407,5.43900000000001,2.2032195095798723,0.9999208007339148,1720289788803.0,1720289796.427777,52.79846640776309,-67.40982289435783,607.8310546875,-2.671376466751098,-9.22221851348877,-93.14678192138672,3.260009765625,2.2046614135618245
1720289789310,2024-07-06,200,-67.40983980743061,52.79846553590559,584.4538718566895,5.43900000000001,2.1779771163359483,0.903126579260892,1720289789300.0,1720289796.926419,52.79846555391942,-67.40983947628702,607.8346557617188,-2.6902077198028564,-8.5142240524292,-93.24049377441406,3.26025390625,2.180243659633448
1720289789809,2024-07-06,450,-67.40985612618752,52.79846469399768,584.2625183537277,5.43900000000001,2.14767582489418,0.9896247051037256,1720289789803.0,1720289797.427124,52.79846470371425,-67.40985592469671,607.8433837890625,-2.2399299144744877,-8.710253715515137,-93.43130493164062,3.260009765625,2.1476319498714656
1720289790311,2024-07-06,200,-67.4098722853876,52.798463932608605,584.7810464326508,5.43900000000001,2.0916096626784664,0.9573145942442888,1720289790303.0,1720289797.92676,52.79846394391497,-67.40987202438394,607.8540649414062,-2.09517240524292,-8.623595237731934,-93.45691680908205,3.260009765625,2.091755469692781
1720289790811,2024-07-06,450,-67.4098879110578,52.79846335135739,584.2123770290257,5.43900000000001,2.045968735055322,0.994826840363326,1720289790803.0,1720289798.426438,52.798463358072446,-67.40988765581405,607.8833618164062,-1.542286992073059,-9.138350486755373,-94.25163269042967,3.350341796875,2.0451473584748765
1720289792309,2024-07-06,200,-67.4099360792998,52.79846253789823,585.3214515075684,5.43900000000001,2.2968921642702065,0.9177020524724432,1720289792300.0,1720289799.926396,52.79846254208144,-67.40993576990057,607.9671630859375,-2.4910738468170166,-9.657271385192873,-94.2781753540039,3.34991455078125,2.2944821799580724
1720289792810,2024-07-06,450,-67.40995334521605,52.79846230625657,584.0929850921631,5.43900000000001,2.328458078422944,0.999774591783101,1720289792800.0,1720289800.426445,52.79846231134588,-67.4099529995418,607.95947265625,-2.7955574989318848,-8.768160820007324,-93.35531616210938,3.260009765625,2.331330408000526
1720289793311,2024-07-06,200,-67.4099704424046,52.798462060198105,585.8983971034571,5.43900000000001,2.3089500133561294,0.9889494361886646,1720289793303.0,1720289800.9266078,52.79846206469293,-67.40997016121345,607.92431640625,-2.7588951587677,-8.56028938293457,-92.92327117919922,3.2490234375,2.3090401600452712
1720289793810,2024-07-06,450,-67.40998738796692,52.79846174766284,584.1155634436853,5.43900000000001,2.2580564252847117,0.9935142845636612,1720289793803.0,1720289801.4265149,52.79846175336585,-67.40998714368818,607.881591796875,-2.7560291290283203,-8.808502197265625,-92.92106628417967,3.159423828125,2.259596583325811
1720289794309,2024-07-06,200,-67.41000434787675,52.798461355355954,585.9782589991353,5.43900000000001,2.186805454312006,0.9904540327376756,1720289794300.0,1720289801.926743,52.79846136261017,-67.41000404837497,607.8568725585938,-2.6115896701812744,-8.23187255859375,-92.88369750976562,3.15997314453125,2.186494238080356
1720289794811,2024-07-06,450,-67.41002083088813,52.79846096239078,586.0119581831312,5.43900000000001,2.153473315804958,0.9452832014264014,1720289794803.0,1720289802.426571,52.79846096942243,-67.41002056123821,607.8485107421875,-2.689538955688477,-8.250447273254395,-92.98748779296876,3.15972900390625,2.1544230243875937
1720289795310,2024-07-06,200,-67.41003701629634,52.79846053468525,585.9813763961793,5.43900000000001,2.1218555751786345,0.8342889787364978,1720289795300.0,1720289802.9264488,52.798460542525646,-67.41003669779057,607.8298950195312,-2.600275993347168,-8.827338218688965,-93.13272094726562,3.15997314453125,2.1227185238054243
1720289795810,2024-07-06,450,-67.41005275079607,52.79846017630953,585.9926121510098,5.43900000000001,2.096907707193641,0.9428438435035892,1720289795803.0,1720289803.427029,52.79846018124615,-67.41005252711442,607.8291015625,-2.869056940078736,-8.937582969665527,-93.11722564697266,3.15997314453125,2.096133104006916
1720289796309,2024-07-06,200,-67.41006834197078,52.798459808580176,585.1431897506715,5.43900000000001,2.1234624119848133,0.9729113587973482,1720289796300.0,1720289803.926444,52.7984598166285,-67.41006806288715,607.833251953125,-2.889355182647705,-9.348655700683594,-93.0285186767578,3.169677734375,2.1213991343386374
1720289796811,2024-07-06,450,-67.4100838673071,52.79845933015894,584.144984473317,5.43900000000001,2.157324983234851,0.9451745514530256,1720289796803.0,1720289804.426524,52.79845933923896,-67.41008360825722,607.8236694335938,-2.984389543533325,-9.550918579101562,-93.0717544555664,3.25,2.1577974160687017
1720289797309,2024-07-06,200,-67.4100996046752,52.79845869567946,584.0060402069092,5.43900000000001,2.168335420842986,0.9946619533224504,1720289797300.0,1720289804.92632,52.7984587081937,-67.41009931897169,607.8195190429688,-2.712066173553467,-9.825461387634276,-93.17171478271484,3.25006103515625,2.166460658108624
1720289798309,2024-07-06,200,-67.41013203520836,52.79845719393426,583.826512740258,5.43900000000001,2.2218899888571197,0.9650924138540112,1720289798300.0,1720289805.926697,52.79845721000124,-67.41013173540316,607.8267211914062,-2.6422653198242188,-9.862024307250977,-93.0014419555664,3.260009765625,2.2230841293668493
1720289799309,2024-07-06,200,-67.41016619048885,52.79845542682615,583.8340158996582,5.43900000000001,2.2555424058303077,0.9754914201545148,1720289799300.0,1720289806.926383,52.79845544165779,-67.41016587687703,607.89697265625,-2.05031681060791,-8.391160011291504,-92.84051513671876,3.33001708984375,2.256716650478505
1720289800310,2024-07-06,200,-67.41019975406836,52.79845373505103,584.1369433746338,5.43900000000001,2.162622655111825,0.9794581309664886,1720289800300.0,1720289807.926356,52.798453751950966,-67.41019942255167,607.953125,-1.3940857648849487,-9.095556259155272,-93.4234390258789,3.349609375,2.1585404599640987
1720289800809,2024-07-06,450,-67.4102164137481,52.79845310485018,583.2035590515137,5.43900000000001,2.2158903975055253,0.9650251267934667,1720289800800.0,1720289808.426347,52.79845311149915,-67.41021611473462,607.9346923828125,-1.9257564544677732,-7.727555751800537,-92.94976043701172,3.260009765625,2.217634341642428
1720289801311,2024-07-06,200,-67.4102327344769,52.798452765380645,584.7545319605562,5.43900000000001,2.171964454283183,0.8984634316113421,1720289801303.0,1720289808.926336,52.79845277116744,-67.41023246797188,607.9254760742188,-2.3467588424682617,-7.922733306884766,-92.9250259399414,3.259765625,2.1724704551395715
1720289801809,2024-07-06,450,-67.41024902049894,52.79845244917251,583.1756513366698,5.43900000000001,2.19285654144043,0.9254877668683776,1720289801800.0,1720289809.4263968,52.79845245329333,-67.41024872118558,607.9069213867188,-1.9138638973236084,-9.376387596130373,-92.60892486572266,3.25994873046875,2.190190739099196
1720289802310,2024-07-06,200,-67.41026578491223,52.79845222810939,584.7835442944152,5.43900000000001,2.261480707236448,0.9654126359649036,1720289802302.0,1720289809.926605,52.7984522315887,-67.41026551264855,607.88232421875,-2.657052755355835,-8.598865509033203,-92.33324432373048,3.25,2.263211391308899
1720289802809,2024-07-06,450,-67.41028237057984,52.79845197367352,583.2173700866699,5.43900000000001,2.206284370358081,0.9838994572361912,1720289802800.0,1720289810.4262311,52.79845197864601,-67.41028207694012,607.86767578125,-2.4841954708099365,-8.10549259185791,-91.79940032958984,3.1796875,2.2073235329096943
1720289803309,2024-07-06,200,-67.41029867522586,52.798451626765925,587.0205158004761,5.43900000000001,2.182327797119646,0.9689571347475512,1720289803300.0,1720289810.926232,52.79845163495815,-67.41029838183852,607.8406982421875,-2.3348543643951416,-8.287455558776855,-91.68276977539062,3.15997314453125,2.183078096309433
1720289803809,2024-07-06,450,-67.41031495521177,52.79845112685816,583.1859704457293,5.43900000000001,2.19115897358198,0.9896883550448644,1720289803801.0,1720289811.4269052,52.798451135871886,-67.41031469750594,607.8173828125,-2.5433061122894287,-8.342290878295898,-91.89100646972656,3.15997314453125,2.1912937566041637
1720289804309,2024-07-06,200,-67.41033112033877,52.79845059482702,584.830133758545,5.43900000000001,2.1733513008962047,0.9747372739081462,1720289804300.0,1720289811.926293,52.79845060299616,-67.41033082750454,607.796142578125,-1.8459728956222532,-8.529369354248047,-91.74884033203124,3.1597900390625,2.172965160190742
1720289804808,2024-07-06,450,-67.41034725430089,52.7984500790471,584.2278493270875,5.43900000000001,2.151814643616706,0.9167978754004594,1720289804800.0,1720289812.426372,52.798450089583696,-67.41034699888462,607.7830200195312,-2.409141063690185,-7.914690971374512,-91.89287567138672,3.15997314453125,2.151927358494424
1720289805308,2024-07-06,200,-67.41036319472565,52.798449309750815,585.711266532898,5.43900000000001,2.137054504760352,0.994826840363326,1720289805300.0,1720289812.92623,52.79844932406668,-67.41036293456443,607.777099609375,-2.102024793624878,-8.669315338134766,-92.17689514160156,3.1600341796875,2.1370903570456163
1720289805810,2024-07-06,450,-67.41037940265038,52.79844839065304,585.8270333460027,5.43900000000001,2.1330350909203326,0.9141410357214436,1720289805801.0,1720289813.4268942,52.79844840709672,-67.41037910999526,607.7880249023438,-1.398762345314026,-7.912524223327637,-92.5121078491211,3.1602783203125,2.135405600036984
1720289806309,2024-07-06,200,-67.4103954754227,52.798447548510815,585.7691629180908,5.43900000000001,2.1093223902285314,0.9792117449230856,1720289806301.0,1720289813.926774,52.79844756104178,-67.41039521392034,607.8071899414062,-1.4207276105880735,-8.482489585876465,-92.7245635986328,3.16998291015625,2.107831297234495
1720289806810,2024-07-06,450,-67.41041183469677,52.79844683239296,585.7826419219972,5.43900000000001,2.1295614722158347,0.988904272132924,1720289806800.0,1720289814.426273,52.79844684432465,-67.41041150358156,607.8336791992188,-1.072351574897766,-8.422370910644531,-92.6533203125,3.25048828125,2.127791329919757
1720289807309,2024-07-06,200,-67.4104283863492,52.798446283102734,586.4767838058473,5.43900000000001,2.1508108218311826,0.9801470182377956,1720289807300.0,1720289814.926223,52.79844629200468,-67.41042808875126,607.8610229492188,-1.4897390604019165,-7.985865592956543,-92.75603485107422,3.2503662109375,2.151852925866282
1720289807810,2024-07-06,450,-67.41044482589452,52.79844582824335,585.8167350505482,5.43900000000001,2.143651396167765,0.9599177754425846,1720289807801.0,1720289815.426878,52.79844583533298,-67.41044453804808,607.8682250976562,-1.3430956602096558,-7.699202537536621,-92.6340789794922,3.25,2.142541487112529
1720289808809,2024-07-06,450,-67.41047697546246,52.79844496453984,585.8104544219972,5.43900000000001,2.0566285889366096,0.9977040995056332,1720289808800.0,1720289816.426251,52.79844497221404,-67.41047669283188,607.8716430664062,-1.3989005088806152,-7.624028205871582,-92.94554901123048,3.260009765625,2.056391983995657
1720289809309,2024-07-06,200,-67.41049241138265,52.79844456443128,588.0793405685425,5.43900000000001,2.007426466323874,0.9446118036024792,1720289809300.0,1720289816.9261792,52.79844457107502,-67.41049213436705,607.86767578125,-1.1170032024383545,-7.593576431274414,-93.46672058105467,3.26019287109375,2.0066691342682925
1720289809810,2024-07-06,450,-67.410507798388,52.79844420676914,585.7450747833252,5.43900000000001,2.0016081810732147,0.9667694666626696,1720289809800.0,1720289817.42622,52.79844421252295,-67.41050748600215,607.8872680664062,-1.072786808013916,-9.026273727416992,-93.93968200683594,3.3404541015625,1.9973169883785429
1720289810309,2024-07-06,200,-67.4105236527264,52.79844397355887,587.3963173446656,5.43900000000001,2.129525073320997,0.9612377986555736,1720289810301.0,1720289817.9268732,52.79844397743999,-67.41052339416638,607.9019775390625,-1.6012775897979736,-8.686821937561035,-93.69448852539062,3.34002685546875,2.128411980740592
1720289810809,2024-07-06,450,-67.41053983208063,52.79844367660028,585.2224504623414,5.43900000000001,2.1501875235012786,0.9621223580486314,1720289810800.0,1720289818.426155,52.79844368291411,-67.41053953739853,607.9166259765625,-1.8531274795532229,-8.19481086730957,-93.3257064819336,3.35015869140625,2.1493725998771827
1720289811308,2024-07-06,200,-67.41055628277994,52.79844335984564,587.2572516784668,5.43900000000001,2.14329860006364,0.9965599152697584,1720289811300.0,1720289818.926185,52.79844336468577,-67.4105560193485,607.9266967773438,-1.642873764038086,-7.952173233032227,-93.35344696044922,3.32012939453125,2.1431783620563905
1720289811809,2024-07-06,450,-67.41057270002288,52.79844305775741,585.9057552490235,5.43900000000001,2.1663140682995268,0.967122445401767,1720289811800.0,1720289819.426222,52.798443063971135,-67.41057240160684,607.922119140625,-2.007519245147705,-7.913002014160156,-93.41901397705078,3.34014892578125,2.165403400480041
1720289812308,2024-07-06,200,-67.41058922639498,52.79844276799137,588.4561586914062,5.43900000000001,2.1422067740912136,0.981036676995096,1720289812300.0,1720289819.926255,52.7984427714158,-67.41058896284727,607.9220581054688,-2.0102698802948,-8.192370414733887,-93.0341567993164,3.25994873046875,2.1448886398363904
1720289812809,2024-07-06,450,-67.410605384076,52.79844254496717,589.0862391052246,5.43900000000001,2.045780215616809,0.9186100144865595,1720289812800.0,1720289820.426181,52.79844254980363,-67.41060509944047,607.9366455078125,-2.269543170928955,-8.517662048339844,-93.22248840332033,3.260009765625,2.046779825419545
1720289813308,2024-07-06,200,-67.41062083330561,52.79844224935795,588.6793346557617,5.43900000000001,1.9995701075329864,0.9527167697016952,1720289813300.0,1720289820.926116,52.79844225563357,-67.41062058936787,607.9510498046875,-2.5078647136688232,-7.997928619384766,-92.53572845458984,3.26031494140625,2.0006770390747315
1720289813809,2024-07-06,450,-67.41063592111648,52.7984417140767,589.0236261901856,5.43900000000001,1.980837515249629,0.9408807621883728,1720289813800.0,1720289821.426101,52.79844172732911,-67.41063565067577,607.9645385742188,-2.375173807144165,-9.227621078491213,-93.5058364868164,3.35015869140625,1.979418320438845
1720289814308,2024-07-06,200,-67.4106512461574,52.79844093234156,587.4786876831055,5.43900000000001,2.111288408680592,0.9919588614262492,1720289814300.0,1720289821.926547,52.79844094520889,-67.41065099943489,607.9644775390625,-1.540188193321228,-9.959954261779783,-94.01717376708984,3.3499755859375,2.1100975804887288
1720289815312,2024-07-06,200,-67.41068302578833,52.798439173761935,587.1841797405125,5.43900000000001,2.156844111646868,0.9519636809327532,1720289815303.0,1720289822.9262369,52.79843918930494,-67.41068272513994,607.9744262695312,-1.0404304265975952,-9.729452133178713,-94.53551483154295,3.32989501953125,2.1546937079137325
1720289815809,2024-07-06,450,-67.41069922883246,52.79843839612776,583.3919993358573,5.43900000000001,2.1937030589101374,0.9975823928918024,1720289815801.0,1720289823.4268842,52.79843840665495,-67.41069897164152,607.9642944335938,-0.9632801413536072,-9.487152099609377,-94.35993194580078,3.260009765625,2.195130928722582
1720289816308,2024-07-06,200,-67.41071544333741,52.798437786789336,585.8908953247071,5.43900000000001,2.164806348256432,0.9999878153337758,1720289816300.0,1720289823.926135,52.79843779434936,-67.41071517854105,607.9367065429688,-0.7774782776832581,-9.774433135986328,-94.58798217773438,3.25958251953125,2.1643030740984357
1720289816808,2024-07-06,450,-67.41073210705765,52.79843737507594,584.492013031006,5.43900000000001,2.223910035300411,0.9581375642836538,1720289816800.0,1720289824.426135,52.79843738070456,-67.41073183540995,607.91845703125,-1.1859153509140017,-9.84022045135498,-94.47509765625,3.260009765625,2.22453347248973
1720289817308,2024-07-06,200,-67.41074909331878,52.7984370254534,585.2337125930786,5.43900000000001,2.2312783325846803,0.9420574505538928,1720289817300.0,1720289824.9260218,52.79843703097946,-67.4107488184067,607.8995971679688,-1.4046188592910769,-9.180420875549316,-94.16149139404295,3.24969482421875,2.231579970729838
1720289817808,2024-07-06,450,-67.410766126542,52.79843672156533,583.5823763046266,5.43900000000001,2.175995553478517,0.8498870473717983,1720289817800.0,1720289825.4260428,52.79843672534115,-67.41076585522163,607.89453125,-1.3879212141036987,-9.370849609375,-94.11384582519533,3.25,2.17413369618888
1720289818808,2024-07-06,450,-67.41080047325251,52.798435885655785,583.606619468689,5.43900000000001,2.2590700505958328,0.9352046209132868,1720289818800.0,1720289826.4261508,52.79843589333045,-67.41080019882483,607.8285522460938,-1.1943857669830322,-9.21756362915039,-93.1525650024414,3.15948486328125,2.2593726106299523
1720289819308,2024-07-06,200,-67.41081736457035,52.798435562444936,589.9374287185669,5.43900000000001,2.0993131134027085,0.9833090722829458,1720289819300.0,1720289826.925983,52.798435564317536,-67.41081710336714,607.8333740234375,-0.6311697363853455,-7.9221625328063965,-93.6183624267578,3.16015625,2.098841702521231
1720289819810,2024-07-06,450,-67.41083378448656,52.79843555584157,583.5603291854858,5.43900000000001,2.17499341386968,0.7831501518585028,1720289819800.0,1720289827.426016,52.79843555569489,-67.41083344470573,607.8203125,-2.088252305984497,-10.620722770690918,-93.7701416015625,3.19976806640625,2.172411345485177
1720289820308,2024-07-06,200,-67.41085078954757,52.79843551056434,589.864327484131,5.43900000000001,2.198153783514405,0.9032375626229616,1720289820300.0,1720289827.926026,52.79843551324454,-67.41085051676363,607.821044921875,-2.800477266311645,-9.758922576904297,-92.84598541259766,3.159912109375,2.196503390626365
1720289820809,2024-07-06,450,-67.41086780850898,52.79843523062737,590.2175335083008,5.43900000000001,2.168382895066794,0.91107039940783,1720289820800.0,1720289828.426173,52.79843523830249,-67.41086750686979,607.8214111328125,-2.8524386882781982,-8.935259819030762,-92.50032806396484,3.15997314453125,2.1692052180285417
1720289821309,2024-07-06,200,-67.41088435459616,52.798434787139485,590.4847379837037,5.43900000000001,2.135550234443978,0.9985747416874706,1720289821300.0,1720289828.926082,52.79843479427525,-67.41088405133468,607.8115844726562,-2.137012720108032,-9.41206169128418,-92.24789428710938,3.16009521484375,2.136519382727282
1720289821808,2024-07-06,450,-67.41090127423453,52.79843438179459,590.2165514526367,5.43900000000001,2.20262595430031,0.9979477091564616,1720289821800.0,1720289829.425971,52.798434388384464,-67.41090099818736,607.8201904296875,-2.2803425788879395,-9.582096099853516,-92.08478546142578,3.16009521484375,2.201781689827384
1720289822308,2024-07-06,200,-67.41091851236078,52.79843395097626,583.8935747191304,5.43900000000001,2.204938443187275,0.9779994865563756,1720289822301.0,1720289829.926529,52.79843395776265,-67.41091827073623,607.8120727539062,-3.007866144180298,-8.710226058959961,-91.82276916503906,3.15997314453125,2.2043041473053324
1720289822809,2024-07-06,450,-67.41093587453902,52.79843342396976,583.4902140579225,5.43900000000001,2.1091346015746173,0.9681264129509825,1720289822800.0,1720289830.426053,52.79843343477761,-67.4109355711271,607.822021484375,-2.7797656059265137,-7.161109924316406,-92.08206176757812,3.16015625,2.1120396260495915
1720289823308,2024-07-06,200,-67.41095208343299,52.79843277027603,584.3106487808228,5.43900000000001,1.8588812052630987,0.9822812117185824,1720289823300.0,1720289830.926002,52.79843278126423,-67.41095183423478,607.8765869140625,-1.9006811380386357,-6.56343936920166,-93.52545166015624,3.25128173828125,1.8595281905926968
1720289823808,2024-07-06,450,-67.41096690063098,52.79843215345689,584.4550362930298,5.43900000000001,1.762452687841883,0.999238556064446,1720289823800.0,1720289831.425938,52.7984321600069,-67.41096667396059,607.9534912109375,-1.5135469436645508,-7.5997443199157715,-93.835693359375,3.3509521484375,1.7622122770084463
1720289824309,2024-07-06,200,-67.41098101003074,52.79843186909025,584.5441940841675,5.43900000000001,1.773388300721549,0.9821639210380132,1720289824300.0,1720289831.925963,52.798431871131065,-67.41098075920917,608.0271606445312,-1.9127157926559448,-8.779561996459961,-94.37158203125,3.44158935546875,1.7724109939155568
1720289824808,2024-07-06,450,-67.41099509819661,52.79843181748109,584.4372375954355,5.43900000000001,1.8686400885425591,0.9900498193857444,1720289824800.0,1720289832.4261482,52.798431818146376,-67.41099486723341,608.1163940429688,-2.7836668491363525,-9.993477821350098,-95.27249908447266,3.531494140625,1.8660922857406703
1720289825308,2024-07-06,200,-67.41100971290254,52.79843190589638,585.1966133270264,5.43900000000001,1.9397380863339688,0.7770972404327772,1720289825300.0,1720289832.925964,52.79843189984387,-67.4110094777087,608.20166015625,-1.6381666660308838,-8.72043514251709,-92.8777084350586,3.5509033203125,1.9376196709768492
1720289825809,2024-07-06,450,-67.41102449617809,52.79843250345469,584.5418935928344,5.43900000000001,1.9729650038575184,0.8270583044570056,1720289825800.0,1720289833.4259,52.798432486372114,-67.4110242264825,608.240478515625,-1.46224045753479,-8.519537925720215,-86.85167694091797,3.55023193359375,1.9730591053249835
