systemTimeMs,gnssTime,latitudeDeg,longitudeDeg,altitude,rollDeg,pitchDeg,yawDeg,agl,hSpeed
1720292794889,1720292801.9741702,52.80439309252521,-67.42078238485855,605.7517700195312,0.7221581339836121,0.11252440512180328,147.54998779296875,0,0.0006144241599379866
1720292794990,1720292802.0751228,52.804393092772074,-67.42078238569903,605.7540893554688,0.7210626602172852,0.1128125712275505,147.548583984375,0,0.0007578837630590231
1720292795089,1720292802.173679,52.80439309229737,-67.42078238552847,605.75634765625,0.7228966355323792,0.10722952336072922,147.5533447265625,0,0.0006991516130653079
1720292795189,1720292802.273737,52.804393092031894,-67.42078238556783,605.758056640625,0.7276138067245483,0.1122082993388176,147.5613555908203,0,0.0010228897979174707
1720292795289,1720292802.3737621,52.80439309093415,-67.42078238401831,605.758056640625,0.7279087901115417,0.10512447357177734,147.5809783935547,0,0.0012836779506978217
1720292795389,1720292802.473658,52.804393089599934,-67.42078238357519,605.7576904296875,0.7284440398216248,0.10668401420116425,147.59548950195312,0,0.0019074679407918612
1720292795489,1720292802.573777,52.80439308690035,-67.42078238403786,605.7561645507812,0.7272217869758606,0.09788704663515091,147.60116577148438,0,0.0025324335984364477
1720292795589,1720292802.6738508,52.80439308411822,-67.4207823855275,605.7553100585938,0.72555011510849,0.10596618801355362,147.60580444335938,0,0.0031975683137627216
1720292795689,1720292802.773828,52.804393080928904,-67.4207823864189,605.7545166015625,0.7241761088371277,0.09627985209226608,147.61273193359375,0,0.003188225325923097
1720292795789,1720292802.8737862,52.80439307843758,-67.42078238807822,605.7545166015625,0.7250863909721375,0.09564514458179474,147.61538696289062,0,0.003652726769771855
1720292795889,1720292802.9738188,52.80439307409724,-67.42078238978222,605.7543334960938,0.7258730530738831,0.08840049058198929,147.6201934814453,0,0.004980373176984967
1720292795989,1720292803.073827,52.80439306938064,-67.42078239389247,605.7543334960938,0.7277716398239136,0.09312503784894943,147.62367248535156,0,0.005790291321580571
1720292796089,1720292803.173826,52.80439306369798,-67.42078239675595,605.7540283203125,0.7274178266525269,0.08809933811426163,147.62184143066406,0,0.006781142268383362
1720292796189,1720292803.273796,52.804393058140526,-67.42078239976497,605.7540283203125,0.7273110747337341,0.08780793845653534,147.62277221679688,0,0.006431687783215951
1720292796289,1720292803.373926,52.804393053073774,-67.4207824033696,605.7534790039062,0.7314472198486328,0.0924067571759224,147.6228485107422,0,0.007864009922018047
1720292796389,1720292803.4741068,52.80439304749615,-67.42078240849506,605.7534790039062,0.7304971814155579,0.08834456652402878,147.62181091308594,0,0.00838753644852913
1720292796490,1720292803.574274,52.80439304247248,-67.42078241438726,605.7529296875,0.7320420742034912,0.08506066352128983,147.62396240234375,0,0.008970803239872592
1720292796591,1720292803.6754618,52.804393036606996,-67.42078241998702,605.7529296875,0.7316617369651794,0.08621951192617416,147.6251220703125,0,0.008614590796250883
1720292796689,1720292803.773626,52.804393031239925,-67.42078242458489,605.7521362304688,0.7345758676528931,0.08914734423160553,147.6291046142578,0,0.008677328915853877
1720292796789,1720292803.8737721,52.80439302532028,-67.42078242897001,605.7521362304688,0.734049916267395,0.08775980025529861,147.63037109375,0,0.008534028005774168
1720292796889,1720292803.97381,52.804393020780445,-67.42078243192572,605.750732421875,0.7328186631202698,0.08858618140220642,147.63043212890625,0,0.009326147335166244
1720292796989,1720292804.073753,52.80439301663867,-67.42078243453751,605.750732421875,0.7332755923271179,0.08206100016832352,147.63198852539062,0,0.00945002146416955
1720292797089,1720292804.1738281,52.80439301282201,-67.42078243761154,605.7501831054688,0.7329747676849365,0.08539881557226181,147.62887573242188,0,0.010730769916074417
1720292797189,1720292804.273788,52.804393009087995,-67.4207824399163,605.7501831054688,0.732261598110199,0.08323304355144501,147.6278533935547,0,0.010102386854954777
1720292797289,1720292804.373821,52.80439300733857,-67.42078244170257,605.7498168945312,0.7338542938232422,0.08943942189216614,147.62591552734375,0,0.009719962721199422
1720292797389,1720292804.4737668,52.804393004995326,-67.4207824423472,605.7498168945312,0.7338910698890686,0.09251073747873306,147.6245574951172,0,0.01059272088477947
1720292797489,1720292804.573756,52.804393002323096,-67.4207824438227,605.7498168945312,0.7272096276283264,0.09448397904634476,147.62376403808594,0,0.010088153793696132
1720292797589,1720292804.6737978,52.80439300029932,-67.42078244466992,605.7498168945312,0.728725016117096,0.0968770682811737,147.62596130371094,0,0.010513218445137206
1720292797689,1720292804.773793,52.80439299672839,-67.42078244647863,605.7498168945312,0.7284586429595947,0.09600796550512314,147.62620544433594,0,0.0111931730267441
1720292797789,1720292804.8739898,52.8043929925938,-67.42078244870365,605.7498168945312,0.7319338321685791,0.1002860739827156,147.62586975097656,0,0.012115779438105547
1720292797889,1720292804.974232,52.804392989451856,-67.42078244949232,605.7496948242188,0.7300440073013306,0.09784999489784241,147.6230926513672,0,0.01101740286781596
1720292797989,1720292805.073636,52.80439298786933,-67.42078244975107,605.7496948242188,0.7337974309921265,0.09439797699451447,147.62574768066406,0,0.011279248147621426
1720292798089,1720292805.173832,52.80439298659912,-67.42078245071401,605.7489013671875,0.723990797996521,0.08625355362892151,147.62867736816406,0,0.011729746772177734
1720292798189,1720292805.273741,52.80439298596665,-67.42078245126076,605.7489013671875,0.7301886677742004,0.09526226669549942,147.6275177001953,0,0.011333749477578293
1720292798289,1720292805.3738,52.804392984790624,-67.42078245161463,605.7486572265625,0.726411759853363,0.08653222769498825,147.62954711914062,0,0.013523022137737893
1720292798389,1720292805.473679,52.804392982944485,-67.42078245208673,605.7486572265625,0.7270630598068237,0.07622777670621872,147.62710571289062,0,0.01255317938649552
1720292798489,1720292805.573756,52.804392982242,-67.42078245482838,605.7486572265625,0.7248761057853699,0.07973991334438324,147.62754821777344,0,0.014371009672026543
1720292798589,1720292805.6736681,52.80439297999172,-67.42078245668348,605.7486572265625,0.7285794615745544,0.06738252192735672,147.62892150878906,0,0.01350481817863709
1720292798689,1720292805.7736309,52.80439297856819,-67.42078245995401,605.7486572265625,0.7209946513175964,0.07783952355384827,147.63653564453125,0,0.015499930492092844
1720292798789,1720292805.873742,52.804392975935045,-67.42078246184074,605.7486572265625,0.7254917621612549,0.07189550995826721,147.63687133789062,0,0.013718737348337036
1720292798889,1720292805.973662,52.8043929731225,-67.42078246370129,605.7486572265625,0.7225518226623535,0.06879311800003052,147.63626098632812,0,0.015597849740374054
1720292798989,1720292806.073635,52.804392969757835,-67.42078246466437,605.7486572265625,0.7294929623603821,0.07007239013910294,147.6374969482422,0,0.013204210476539106
1720292799089,1720292806.173684,52.80439296778995,-67.42078246662105,605.7486572265625,0.7259392738342285,0.07482960820198059,147.6350860595703,0,0.01564843537112499
1720292799189,1720292806.273736,52.80439296613321,-67.42078246613096,605.7486572265625,0.733122706413269,0.06846003234386444,147.63780212402344,0,0.012979706806093732
1720292799289,1720292806.3739,52.80439296543535,-67.4207824662397,605.7484130859375,0.7285542488098145,0.0800226703286171,147.6406707763672,0,0.015990983337488242
1720292799389,1720292806.474108,52.80439296265108,-67.42078246473015,605.7484130859375,0.7349417805671692,0.06879255920648575,147.6395263671875,0,0.014971396607387744
1720292799489,1720292806.573612,52.804392961240175,-67.42078246394915,605.74755859375,0.7311611771583557,0.08051875978708267,147.64083862304688,0,0.015846120924543797
1720292799589,1720292806.673743,52.804392959145254,-67.42078246171369,605.74755859375,0.7311649918556213,0.06613648682832718,147.64010620117188,0,0.014250068531185569
1720292799689,1720292806.773557,52.8043929602736,-67.4207824629901,605.7472534179688,0.7303985953330994,0.08089035749435425,147.6436767578125,0,0.014413277298005537
1720292799789,1720292806.873729,52.804392960403916,-67.42078246308242,605.7472534179688,0.7341176271438599,0.07030270993709564,147.6493682861328,0,0.013767397286521557
1720292799889,1720292806.973781,52.80439296186867,-67.42078246457181,605.7472534179688,0.7321943640708923,0.08184322714805603,147.6509552001953,0,0.013988789409867372
1720292799989,1720292807.073608,52.804392962117596,-67.42078246563167,605.7472534179688,0.7327178716659546,0.07202284783124924,147.64845275878906,0,0.013375321231586247
1720292800089,1720292807.1736991,52.804392964084556,-67.42078246513424,605.7472534179688,0.7303659319877625,0.07810653001070023,147.64743041992188,0,0.01311804122070348
1720292800189,1720292807.273691,52.80439296552131,-67.42078246217709,605.7472534179688,0.7313924431800842,0.06617642939090729,147.64710998535156,0,0.013314891925886085
1720292800289,1720292807.3737862,52.804392967631735,-67.42078245881054,605.7472534179688,0.7325807809829712,0.07641471922397614,147.64483642578125,0,0.012993227173528637
1720292800389,1720292807.47372,52.80439296712744,-67.42078245457193,605.7472534179688,0.7301812171936035,0.058267489075660706,147.64442443847656,0,0.013306624539457943
1720292800489,1720292807.573677,52.80439296805713,-67.42078245172185,605.7465209960938,0.7317857146263123,0.07219485193490982,147.64707946777344,0,0.013110115377465219
1720292800590,1720292807.673758,52.80439296680726,-67.42078244845523,605.7465209960938,0.7310279011726379,0.056100159883499146,147.65145874023438,0,0.01323333600180668
1720292800690,1720292807.773802,52.80439296679949,-67.42078244606046,605.746337890625,0.7328107953071594,0.07427352666854858,147.65231323242188,0,0.013207473624859417
1720292800790,1720292807.87394,52.80439296478133,-67.42078244214154,605.746337890625,0.7348027229309082,0.062057413160800934,147.653564453125,0,0.013703781097400622
1720292800890,1720292807.97409,52.804392964515394,-67.42078243785569,605.746337890625,0.7373817563056946,0.07501877844333649,147.65060424804688,0,0.013433401120700175
1720292800989,1720292808.073566,52.80439296264935,-67.42078243322779,605.746337890625,0.7374192476272583,0.06969038397073746,147.64703369140625,0,0.015050751791924721
1720292801089,1720292808.1736782,52.80439296079781,-67.42078242889163,605.7457275390625,0.738197386264801,0.07362345606088638,147.64898681640625,0,0.013334926395101263
1720292801189,1720292808.273707,52.80439295850919,-67.4207824254022,605.7457275390625,0.7392545938491821,0.0742228776216507,147.65097045898438,0,0.015812281629621935
1720292801289,1720292808.373722,52.804392956536965,-67.42078241999012,605.7440795898438,0.7440649271011353,0.07029024511575699,147.65184020996094,0,0.012371335194567557
1720292801389,1720292808.4736052,52.80439295424752,-67.42078241611057,605.7440795898438,0.7382552623748779,0.08974836766719818,147.65264892578125,0,0.015840864089756428
1720292801489,1720292808.5736508,52.80439295121563,-67.42078240870941,605.7440795898438,0.7487878799438477,0.06779980659484863,147.65347290039062,0,0.014362812019251003
1720292801589,1720292808.6737401,52.80439294928047,-67.42078240469608,605.7440795898438,0.7422122955322266,0.08414693176746368,147.64849853515625,0,0.015580882591114212
1720292801689,1720292808.773773,52.80439294873251,-67.4207824001486,605.7440795898438,0.7485630512237549,0.07552428543567657,147.64552307128906,0,0.014317997197728652
1720292801789,1720292808.873754,52.80439294739771,-67.42078239842286,605.7440795898438,0.7381342649459839,0.08591129630804062,147.64291381835938,0,0.016008869712125444
1720292801889,1720292808.973711,52.80439294574796,-67.42078239496544,605.7440795898438,0.7454706430435181,0.07853482663631439,147.6374053955078,0,0.014663619155133024
1720292801989,1720292809.073765,52.80439294337551,-67.42078239352513,605.7440795898438,0.7357592582702637,0.09275561571121216,147.634765625,0,0.015934589043776606
1720292802089,1720292809.173694,52.8043929412941,-67.42078238806823,605.7440795898438,0.7460524439811707,0.07782570272684097,147.63795471191406,0,0.014055386453315265
1720292802189,1720292809.2737489,52.80439293942917,-67.42078238575917,605.7440795898438,0.7434634566307068,0.09926608204841614,147.63470458984375,0,0.015194669999847156
1720292802289,1720292809.373947,52.804392937072706,-67.42078238172272,605.7440795898438,0.7530785799026489,0.07639555633068085,147.63516235351562,0,0.015032331021287083
1720292802389,1720292809.474118,52.80439293496038,-67.42078237975943,605.7440795898438,0.7524319291114807,0.09164733439683914,147.63450622558594,0,0.014873229673113829
1720292802489,1720292809.5736651,52.80439293218401,-67.42078237547119,605.7440795898438,0.7532904744148254,0.07935487478971481,147.63421630859375,0,0.01626385614621285
1720292802589,1720292809.673544,52.80439292940392,-67.42078237096841,605.7440795898438,0.754953920841217,0.0874365046620369,147.6348114013672,0,0.014943383157760093
1720292802689,1720292809.7735848,52.80439292772661,-67.4207823683124,605.7440795898438,0.7508012056350708,0.08156559616327286,147.63754272460938,0,0.0160238897601098
1720292802791,1720292809.873579,52.80439292687582,-67.42078236520744,605.7440795898438,0.760462760925293,0.08581536263227463,147.6395721435547,0,0.014815070613461424
1720292802889,1720292809.973699,52.80439292480024,-67.42078236398581,605.7440795898438,0.7488634586334229,0.08762846887111664,147.63829040527344,0,0.017397063607349852
1720292802989,1720292810.073754,52.80439292223406,-67.42078236173319,605.7440795898438,0.757903516292572,0.0807909443974495,147.63502502441406,0,0.015491205119850903
1720292803089,1720292810.1736052,52.804392919751805,-67.42078236156422,605.7440795898438,0.7422040700912476,0.09090854972600937,147.63043212890625,0,0.01737507192875133
1720292803189,1720292810.2736158,52.8043929170109,-67.42078235708841,605.7440795898438,0.7511863708496094,0.08110892027616501,147.62705993652344,0,0.016454319603976537
1720292803289,1720292810.373583,52.80439291485264,-67.42078235556696,605.7440795898438,0.7461466789245605,0.0918063148856163,147.6292724609375,0,0.016523071192408194
1720292803389,1720292810.473684,52.804392911804115,-67.42078235261555,605.7440795898438,0.7578944563865662,0.08549033105373383,147.6280059814453,0,0.016476345722656684
1720292803489,1720292810.5735989,52.80439291036059,-67.42078235161534,605.7440795898438,0.7524474263191223,0.09998162090778351,147.6257781982422,0,0.01672103435985446
1720292803589,1720292810.673598,52.80439290691473,-67.42078234985438,605.7440795898438,0.7580088376998901,0.08843332529067993,147.62738037109375,0,0.018073742565026973
1720292803689,1720292810.7737558,52.8043929050278,-67.42078235081397,605.7440795898438,0.7547750473022461,0.09990350157022476,147.62469482421875,0,0.017105066375789724
1720292803789,1720292810.87395,52.804392901694385,-67.42078235065424,605.7440795898438,0.7599456310272217,0.08726560324430466,147.62686157226562,0,0.01944757789153949
1720292803889,1720292810.973601,52.80439289967434,-67.42078235123437,605.7440795898438,0.7522014379501343,0.09884258359670639,147.6298828125,0,0.01720583878915106
1720292803989,1720292811.073558,52.804392896402945,-67.42078235069826,605.7440795898438,0.7603688836097717,0.09182488173246384,147.630859375,0,0.0203372958889399
1720292804089,1720292811.17359,52.804392893727254,-67.42078235385124,605.7440795898438,0.756747841835022,0.09924977272748947,147.63125610351562,0,0.019327385289223287
1720292804189,1720292811.273783,52.80439289072724,-67.42078235697277,605.7440795898438,0.7633234858512878,0.09597119688987732,147.6331787109375,0,0.02068011632459694
1720292804289,1720292811.3737159,52.80439288900239,-67.42078236206986,605.7440795898438,0.7528555393218994,0.10299952328205109,147.63328552246094,0,0.018803408484950598
1720292804389,1720292811.473681,52.80439288683891,-67.42078236715686,605.7440795898438,0.7554630637168884,0.09834706038236618,147.6345977783203,0,0.021249875794419223
1720292804489,1720292811.5737312,52.80439288525856,-67.42078237348623,605.7440795898438,0.7501207590103149,0.09475895762443542,147.63992309570312,0,0.019470551501394057
1720292804589,1720292811.673708,52.80439288389819,-67.42078237925008,605.7440795898438,0.7564643621444702,0.09900827705860138,147.6433868408203,0,0.020420830272543378
1720292804689,1720292811.7736928,52.80439288322239,-67.42078238429609,605.7440795898438,0.7535746097564697,0.09619644284248352,147.64334106445312,0,0.019315480232499342
1720292804789,1720292811.873539,52.804392882116886,-67.42078239033252,605.7440795898438,0.7546234726905823,0.10189886391162872,147.64268493652344,0,0.02118365875324133
1720292804889,1720292811.9736152,52.804392883705376,-67.4207823936138,605.7440795898438,0.7538320422172546,0.09107470512390137,147.64495849609375,0,0.019267126213642936
1720292804989,1720292812.07367,52.804392886764454,-67.42078239802568,605.7440795898438,0.7541210055351257,0.11860482394695282,147.64706420898438,0,0.02112969375172885
1720292805089,1720292812.173665,52.804392887218356,-67.42078240106927,605.7440795898438,0.7503266930580139,0.09377362579107285,147.64730834960938,0,0.019218169623513543
1720292805190,1720292812.273769,52.80439288986282,-67.4207824054547,605.7440795898438,0.7549651265144348,0.1251787692308426,147.6454620361328,0,0.01998535387620553
1720292805290,1720292812.3739789,52.804392891633306,-67.42078240837608,605.7440795898438,0.7487877607345581,0.10052044689655304,147.64157104492188,0,0.0178976316591244
1720292805389,1720292812.473619,52.80439289500302,-67.42078241199265,605.7440795898438,0.7586689591407776,0.11758807301521301,147.64064025878906,0,0.018279007447186586
1720292805490,1720292812.573791,52.804392898629835,-67.42078241504355,605.7440795898438,0.7459011077880859,0.10221646726131439,147.6441650390625,0,0.017921428575031154
1720292805590,1720292812.673613,52.80439290264515,-67.42078241752013,605.7440795898438,0.7589970827102661,0.10889143496751785,147.64292907714844,0,0.01781732183973857
1720292805689,1720292812.773498,52.804392906263416,-67.42078242150528,605.7440795898438,0.7547760009765625,0.10258334875106812,147.6431884765625,0,0.017557648928203873
1720292805789,1720292812.8735502,52.80439290992244,-67.4207824250833,605.7440795898438,0.7668241262435913,0.10227983444929123,147.644287109375,0,0.01808961434762084
1720292805889,1720292812.973592,52.804392912749776,-67.42078242999247,605.7440795898438,0.7591456770896912,0.09499237686395645,147.64259338378906,0,0.01814366243759754
1720292805990,1720292813.0739672,52.8043929150625,-67.42078243505833,605.7440795898438,0.7643886208534241,0.09995933622121811,147.64544677734375,0,0.01810266994583151
1720292806089,1720292813.173538,52.80439291687523,-67.42078244086288,605.7440795898438,0.7521284818649292,0.10274608433246613,147.64976501464844,0,0.01976310336726252
1720292806189,1720292813.2736168,52.80439291740804,-67.42078244459283,605.7440795898438,0.7550973296165466,0.08689682185649872,147.6486053466797,0,0.018336037844215215
1720292806289,1720292813.373548,52.80439291900708,-67.42078245046966,605.7440795898438,0.7514874339103699,0.10479260236024857,147.6468048095703,0,0.020122044945163054
1720292806389,1720292813.4735959,52.804392918689196,-67.42078245516312,605.7440795898438,0.7621994614601135,0.08379057049751282,147.64637756347656,0,0.019035561903800718
1720292806489,1720292813.573678,52.80439292085772,-67.42078246040745,605.7440795898438,0.7553272843360901,0.10509219020605087,147.6487579345703,0,0.019696039885875087
1720292806589,1720292813.673609,52.8043929212363,-67.4207824631719,605.7440795898438,0.7648851275444031,0.09099379926919937,147.6557159423828,0,0.01867032483189491
1720292806689,1720292813.774014,52.80439292250322,-67.42078246769218,605.7440795898438,0.7580963373184204,0.10606606304645538,147.65711975097656,0,0.019849425899422266
1720292806789,1720292813.873966,52.80439292252346,-67.42078247038316,605.7440795898438,0.7655500769615173,0.09398317337036133,147.6580352783203,0,0.018029164329781848
1720292806889,1720292813.9736152,52.80439292482145,-67.42078247464855,605.7440795898438,0.7585232853889465,0.11652544140815735,147.65618896484375,0,0.0198568996362995
1720292806989,1720292814.0734851,52.804392925824025,-67.4207824783188,605.7440795898438,0.7596906423568726,0.10274576395750046,147.65432739257812,0,0.018463717860629364
1720292807089,1720292814.173568,52.80439292795579,-67.42078248369836,605.7440795898438,0.7479710578918457,0.11652690917253494,147.65289306640625,0,0.019371511884279446
1720292807189,1720292814.2736058,52.804392929219134,-67.42078248716132,605.7440795898438,0.7535061836242676,0.10165360569953918,147.6531219482422,0,0.017915533094022787
1720292807289,1720292814.3736699,52.80439293213125,-67.42078249033128,605.7440795898438,0.7589763402938843,0.12049945443868637,147.64846801757812,0,0.01963229517664518
1720292807389,1720292814.4735858,52.8043929319654,-67.42078249463806,605.7440795898438,0.758994460105896,0.10014952719211578,147.6493682861328,0,0.019776174775500775
1720292807489,1720292814.5734599,52.80439293382324,-67.42078249858635,605.7440795898438,0.7644599676132202,0.11527669429779053,147.65045166015625,0,0.01967442971778327
1720292807589,1720292814.673467,52.80439293391106,-67.42078250356768,605.7440795898438,0.7641251087188721,0.10759930312633514,147.64984130859375,0,0.01981172286415194
1720292807689,1720292814.7735932,52.80439293600278,-67.42078250753443,605.7440795898438,0.7688195705413818,0.112028107047081,147.64898681640625,0,0.018676574686089045
1720292807789,1720292814.873473,52.80439293788606,-67.42078251156083,605.7440795898438,0.768510639667511,0.1149432435631752,147.6472930908203,0,0.01837040868714964
1720292807889,1720292814.9736,52.80439294024541,-67.42078251395748,605.7440795898438,0.7703773975372314,0.11373129487037659,147.6451416015625,0,0.01835389259970637
1720292807989,1720292815.07351,52.80439294099395,-67.42078251860801,605.7440795898438,0.7608323097229004,0.11618674546480179,147.64585876464844,0,0.018746488079889965
1720292808089,1720292815.173606,52.80439294218895,-67.42078252023015,605.7440795898438,0.7611421346664429,0.11760533601045609,147.644287109375,0,0.017544977140459623
1720292808189,1720292815.2738051,52.80439294225651,-67.42078252262793,605.7440795898438,0.753455638885498,0.11133817583322525,147.6439971923828,0,0.01880274953823035
1720292808290,1720292815.3739688,52.80439294353961,-67.42078252484984,605.7440795898438,0.7552713751792908,0.1214519739151001,147.6489715576172,0,0.01854745095296592
1720292808389,1720292815.4735591,52.804392943431665,-67.4207825285222,605.7440795898438,0.7551872134208679,0.11507172137498856,147.6501922607422,0,0.018552969714062284
1720292808489,1720292815.573496,52.80439294367799,-67.42078253249889,605.7440795898438,0.7491770386695862,0.1260460764169693,147.64907836914062,0,0.019449804075261052
1720292808589,1720292815.673474,52.80439294183555,-67.42078253629963,605.7440795898438,0.7505964040756226,0.10669311881065369,147.6531219482422,0,0.01922561472474336
1720292808689,1720292815.773453,52.80439294159587,-67.42078253812456,605.7440795898438,0.7498326897621155,0.12792401015758514,147.65443420410156,0,0.018608585492662703
1720292808789,1720292815.873491,52.80439293934969,-67.4207825387972,605.7440795898438,0.750079870223999,0.11129866540431976,147.65150451660156,0,0.019773098518617065
1720292808889,1720292815.97343,52.80439293953399,-67.42078254140544,605.7440795898438,0.7496860027313232,0.1274370402097702,147.65402221679688,0,0.018995101976550743
1720292808989,1720292816.073465,52.80439293867626,-67.42078254508641,605.7440795898438,0.7486003041267395,0.11473095417022705,147.6536407470703,0,0.020526107431189034
1720292809089,1720292816.173443,52.80439293763806,-67.42078254887757,605.7440795898438,0.7473955154418945,0.12204092741012573,147.650390625,0,0.019954199707368562
1720292809189,1720292816.273459,52.804392935426925,-67.42078255162338,605.7440795898438,0.7466476559638977,0.11077627539634705,147.65167236328125,0,0.020939273512167924
1720292809289,1720292816.37346,52.804392934786904,-67.4207825532936,605.7440795898438,0.7513051629066467,0.12060455977916718,147.65748596191406,0,0.01977790450497845
1720292809389,1720292816.473443,52.80439293242644,-67.42078255615341,605.7440795898438,0.7506426572799683,0.1129218265414238,147.6575164794922,0,0.022054486031204492
1720292809489,1720292816.573483,52.80439292983206,-67.42078255772417,605.7440795898438,0.7491680979728699,0.1129641905426979,147.66456604003906,0,0.019349967291805322
1720292809589,1720292816.6736362,52.80439292699378,-67.42078256056327,605.7440795898438,0.7545197606086731,0.12867021560668945,147.670654296875,0,0.02243876002184109
1720292809689,1720292816.7738109,52.80439292426958,-67.42078256297646,605.7440795898438,0.743401288986206,0.11595046520233154,147.6724090576172,0,0.020195864687408173
1720292809790,1720292816.874031,52.804392922818735,-67.42078256552854,605.7440795898438,0.7603676319122314,0.1289442777633667,147.6723175048828,0,0.022438598169344237
1720292809889,1720292816.973425,52.80439292032556,-67.42078256773529,605.7440795898438,0.7501388192176819,0.12228795886039734,147.6700897216797,0,0.022031090717505284
1720292809989,1720292817.0734668,52.80439291804526,-67.42078256964966,605.7440795898438,0.7632208466529846,0.12475388497114182,147.67086791992188,0,0.024567228261363015
1720292810089,1720292817.1734452,52.8043929134404,-67.420782572918,605.7440795898438,0.7483295202255249,0.11507317423820496,147.6682891845703,0,0.02358528687880511
1720292810189,1720292817.2734568,52.80439290892884,-67.42078257517583,605.7440795898438,0.7592406272888184,0.12085819989442825,147.6724853515625,0,0.02656996662708405
1720292810289,1720292817.373523,52.804392905149065,-67.42078257915793,605.7440795898438,0.7409527897834778,0.12043426930904388,147.66775512695312,0,0.024336330809141674
1720292810389,1720292817.473471,52.80439290211538,-67.42078258278546,605.7440795898438,0.7466760277748108,0.13139113783836365,147.66949462890625,0,0.026881468961710495
1720292810489,1720292817.573449,52.804392897753814,-67.42078258175587,605.7440795898438,0.736875593662262,0.11421886831521988,147.66778564453125,0,0.025264971354517864
1720292810589,1720292817.673467,52.80439289358806,-67.42078258205046,605.7440795898438,0.7382379770278931,0.12475304305553436,147.6664581298828,0,0.02642976476290577
1720292810690,1720292817.773956,52.80439288991211,-67.42078258105936,605.7440795898438,0.7350152134895325,0.11110491305589676,147.6689910888672,0,0.024634495220348114
1720292810789,1720292817.8734899,52.804392886935126,-67.42078258179076,605.7440795898438,0.7409021258354187,0.12560901045799255,147.6687469482422,0,0.024597922327866596
1720292810889,1720292817.973491,52.80439288411566,-67.42078258100989,605.7440795898438,0.7425656318664551,0.12034162133932114,147.6707000732422,0,0.024663082229707537
1720292810989,1720292818.073505,52.80439288063122,-67.42078258164165,605.7440795898438,0.7393418550491333,0.11903819441795349,147.66819763183594,0,0.02448421749204922
1720292811089,1720292818.173642,52.80439287757839,-67.42078258080365,605.7440795898438,0.7397002577781677,0.11829260736703873,147.6723175048828,0,0.02354119054470939
1720292811192,1720292818.273843,52.80439287426365,-67.42078257866815,605.7440795898438,0.7439369559288025,0.11830627173185349,147.67762756347656,0,0.024481648468951386
1720292811289,1720292818.373458,52.804392872572954,-67.42078257697945,605.7440795898438,0.7431597709655762,0.13344216346740723,147.6805419921875,0,0.023330722392283645
1720292811390,1720292818.473403,52.80439286975942,-67.4207825752448,605.7440795898438,0.7497125267982483,0.11778368055820465,147.68212890625,0,0.024302303881917762
1720292811489,1720292818.5737422,52.8043928693835,-67.42078257388376,605.7440795898438,0.7455542683601379,0.1350759118795395,147.68223571777344,0,0.022806586974612197
1720292811594,1720292818.673475,52.80439286794617,-67.4207825729068,605.7440795898438,0.7494261264801025,0.13404014706611633,147.68515014648438,0,0.024470786739790373
1720292811689,1720292818.773485,52.80439286810324,-67.42078257325971,605.7440795898438,0.7424365282058716,0.15285585820674896,147.69041442871094,0,0.023483369131168212
1720292811789,1720292818.873614,52.80439286701716,-67.42078257382393,605.7440795898438,0.743096113204956,0.14108800888061523,147.69801330566406,0,0.024765493747012386
1720292811889,1720292818.9734411,52.804392867714085,-67.42078257630223,605.7435302734375,0.7410525679588318,0.15434302389621735,147.69839477539062,0,0.023778140380214047
1720292811989,1720292819.07343,52.804392866796015,-67.42078257786645,605.7435302734375,0.7498706579208374,0.13746318221092224,147.69778442382812,0,0.024247997132687445
1720292812089,1720292819.1734242,52.8043928671855,-67.42078257945808,605.7423706054688,0.7444321513175964,0.15443527698516846,147.69854736328125,0,0.02251532970382837
1720292812189,1720292819.273398,52.804392867095856,-67.42078257744535,605.7420043945312,0.7518676519393921,0.13872790336608887,147.70098876953125,0,0.023710855161240236
1720292812289,1720292819.373486,52.80439286845183,-67.42078257673353,605.74072265625,0.7467730045318604,0.15315084159374237,147.70216369628906,0,0.021572438280375125
1720292812389,1720292819.473592,52.80439286893107,-67.4207825755976,605.74072265625,0.7478880882263184,0.14761888980865479,147.69976806640625,0,0.022278489627940802
1720292812489,1720292819.573518,52.80439287175089,-67.42078257435661,605.74072265625,0.7412298917770386,0.15096506476402283,147.69671630859375,0,0.020588099292941992
1720292812589,1720292819.673682,52.80439287492905,-67.42078257405096,605.74072265625,0.7491654753684998,0.16003566980361938,147.69821166992188,0,0.021086397405337885
1720292812690,1720292819.7738838,52.80439287954754,-67.42078257361617,605.74072265625,0.742684543132782,0.15822674334049225,147.6965789794922,0,0.0194963304866602
1720292812789,1720292819.873468,52.80439288541661,-67.42078257370049,605.74072265625,0.7499373555183411,0.1748388558626175,147.69261169433594,0,0.020323021132216325
1720292812889,1720292819.973682,52.8043928901633,-67.42078257321826,605.74072265625,0.7460047006607056,0.16283018887043,147.69187927246094,0,0.019976870181579422
1720292812989,1720292820.0734909,52.804392896324806,-67.42078257376653,605.74072265625,0.7499945163726807,0.1738661378622055,147.69276428222656,0,0.019298365784837537
1720292813089,1720292820.1734002,52.8043929024681,-67.42078257420194,605.740478515625,0.749186098575592,0.16281761229038239,147.69000244140625,0,0.018471998816454206
1720292813189,1720292820.273477,52.8043929103046,-67.42078257363495,605.740478515625,0.7509315609931946,0.16531629860401154,147.68759155273438,0,0.017346211481519203
1720292813289,1720292820.373379,52.80439291943257,-67.42078257140443,605.740478515625,0.753122091293335,0.16970796883106232,147.6862335205078,0,0.01701435960700491
1720292813389,1720292820.4734452,52.804392927671714,-67.42078257067608,605.740478515625,0.7463077902793884,0.1676187515258789,147.68336486816406,0,0.016969660543178246
1720292813489,1720292820.5734699,52.80439293769139,-67.42078256929246,605.740478515625,0.7449504137039185,0.1685267835855484,147.68601989746094,0,0.016823371100995042
1720292813589,1720292820.673551,52.80439294761456,-67.42078256962647,605.740478515625,0.7416212558746338,0.17203401029109955,147.68399047851562,0,0.01695933049287105
1720292813689,1720292820.773463,52.804392957800914,-67.42078256904931,605.740478515625,0.7467297315597534,0.1738130897283554,147.68453979492188,0,0.016401817397538706
1720292813789,1720292820.873415,52.80439296736937,-67.42078257030616,605.740478515625,0.743261456489563,0.171311616897583,147.68804931640625,0,0.017240025825927967
1720292813890,1720292820.973429,52.80439297548234,-67.42078256733858,605.740478515625,0.7388637661933899,0.1722298264503479,147.69216918945312,0,0.016144353252514492
1720292813989,1720292821.0735092,52.80439298247563,-67.42078256535531,605.740478515625,0.7367092967033386,0.17171764373779297,147.6912841796875,0,0.017657177840861717
1720292814089,1720292821.173738,52.80439298972309,-67.42078256359153,605.740478515625,0.7433387041091919,0.16799668967723846,147.6898956298828,0,0.01615345461176713
1720292814189,1720292821.273869,52.80439299672542,-67.42078256493971,605.740478515625,0.73590087890625,0.17339447140693665,147.69142150878906,0,0.0179784233748487
1720292814289,1720292821.373586,52.804393003217726,-67.42078256253804,605.740478515625,0.7452874779701233,0.1656864732503891,147.69387817382812,0,0.015397033652794736
1720292814389,1720292821.4733639,52.80439300891529,-67.42078256275715,605.740478515625,0.7424426674842834,0.16743165254592896,147.68896484375,0,0.018164594073466215
1720292814489,1720292821.573473,52.804393014920215,-67.42078256133749,605.740478515625,0.7453609108924866,0.17466969788074493,147.6905517578125,0,0.016494319971880275
1720292814589,1720292821.673422,52.804393020031476,-67.4207825619147,605.740478515625,0.7381337285041809,0.16974882781505585,147.6927032470703,0,0.02074369242078974
1720292814689,1720292821.7734752,52.80439302609487,-67.42078256328115,605.740478515625,0.7353245615959167,0.18736086785793304,147.69276428222656,0,0.017132250058761404
1720292814789,1720292821.873486,52.804393031066226,-67.4207825661297,605.740478515625,0.7306243777275085,0.17514055967330933,147.690185546875,0,0.020655836287760954
1720292814889,1720292821.973404,52.8043930357824,-67.42078256778628,605.740478515625,0.7371236085891724,0.18675991892814636,147.69097900390625,0,0.016859421186857706
1720292814989,1720292822.073359,52.80439303786561,-67.42078256936885,605.740478515625,0.7282989025115967,0.16760967671871185,147.6920166015625,0,0.02036605813755314
1720292815089,1720292822.173583,52.80439304239239,-67.42078257032709,605.740478515625,0.7379129528999329,0.19352035224437714,147.68727111816406,0,0.016808086000232692
1720292815189,1720292822.2734232,52.804393044079184,-67.42078256998735,605.740478515625,0.7290272116661072,0.16617096960544586,147.68505859375,0,0.018520956245477043
1720292815289,1720292822.373588,52.80439304682784,-67.42078256789168,605.740478515625,0.7369025945663452,0.1901135891675949,147.6877899169922,0,0.017597812218077828
1720292815389,1720292822.473372,52.80439304770568,-67.42078256526729,605.740478515625,0.7360260486602783,0.16528257727622986,147.69017028808594,0,0.016733024034545567
1720292815489,1720292822.573539,52.8043930505147,-67.4207825638561,605.740478515625,0.7423481345176697,0.1993633657693863,147.69447326660156,0,0.017794236140285368
1720292815589,1720292822.6738062,52.80439305033451,-67.42078256264675,605.740478515625,0.7456839084625244,0.17232762277126312,147.69827270507812,0,0.016422569623514696
1720292815689,1720292822.773398,52.804393052422874,-67.42078256111479,605.740478515625,0.7450557947158813,0.20251673460006714,147.6986846923828,0,0.018460286204056455
1720292815789,1720292822.873398,52.80439305250395,-67.4207825597565,605.740478515625,0.7359565496444702,0.17182010412216187,147.6986083984375,0,0.015472861792712393
1720292815889,1720292822.9735968,52.80439305513254,-67.42078255702523,605.740478515625,0.7648710012435913,0.1985032707452774,147.70257568359375,0,0.018149372506617512
1720292815989,1720292823.0734432,52.804393053577876,-67.42078255922712,605.740478515625,0.7405497431755066,0.17122291028499603,147.7093963623047,0,0.01581396806960086
1720292816089,1720292823.173402,52.80439305458637,-67.42078255875278,605.740478515625,0.7502904534339905,0.18440839648246765,147.71160888671875,0,0.019999661579167924
1720292816193,1720292823.273501,52.80439305393608,-67.42078256057833,605.740478515625,0.7332433462142944,0.17452698945999146,147.7101287841797,0,0.017116663361559193
1720292816289,1720292823.373355,52.80439305368864,-67.42078255814573,605.740478515625,0.7379119396209717,0.18355384469032288,147.71536254882812,0,0.02047337113106311
1720292816389,1720292823.4734101,52.80439305235754,-67.42078255868242,605.740478515625,0.7228304743766785,0.17980284988880157,147.7120361328125,0,0.01615775277352935
1720292816489,1720292823.573416,52.80439305310885,-67.42078255791085,605.740478515625,0.7328588962554932,0.17570360004901886,147.7124786376953,0,0.01924249149677433
1720292816589,1720292823.673322,52.80439305443396,-67.42078256066287,605.740478515625,0.7309962511062622,0.18822427093982697,147.71360778808594,0,0.015046080750177496
1720292816689,1720292823.773487,52.804393053985706,-67.42078256185114,605.740478515625,0.7296292781829834,0.1715475171804428,147.7179718017578,0,0.01807333043614065
1720292816789,1720292823.873429,52.80439305442491,-67.42078256663162,605.740478515625,0.7267066836357117,0.194887176156044,147.7169647216797,0,0.015359410671003111
1720292816890,1720292823.974325,52.804393053251225,-67.42078256347929,605.740478515625,0.7338623404502869,0.17491492629051208,147.7149200439453,0,0.016461051679033403
1720292816989,1720292824.073554,52.80439305270025,-67.4207825626493,605.740478515625,0.7258625030517578,0.1926794946193695,147.7100067138672,0,0.016124957937075378
1720292817090,1720292824.1737669,52.804393050335975,-67.4207825595838,605.740478515625,0.7312618494033813,0.17313683032989502,147.70654296875,0,0.016277348723776803
1720292817189,1720292824.2739358,52.80439304716866,-67.42078255914754,605.740478515625,0.7238258123397827,0.18981453776359558,147.7003173828125,0,0.017359345389372532
1720292817289,1720292824.3734121,52.804393043243174,-67.42078255577717,605.740478515625,0.7254863381385803,0.16911275684833527,147.70294189453125,0,0.014858295379329058
1720292817391,1720292824.473382,52.80439304048113,-67.4207825555374,605.740478515625,0.722266435623169,0.18315434455871582,147.7069091796875,0,0.017057600339440197
1720292817489,1720292824.5733829,52.80439303705604,-67.4207825541099,605.740478515625,0.7216259241104126,0.17192628979682922,147.70974731445312,0,0.014511021135782653
1720292817589,1720292824.6733649,52.80439303417933,-67.42078255458235,605.740478515625,0.7237087488174438,0.17933405935764313,147.70706176757812,0,0.017784363145602177
1720292817689,1720292824.7734132,52.804393029560146,-67.42078255534082,605.740478515625,0.724875271320343,0.17116521298885345,147.71063232421875,0,0.01502440599576929
1720292817789,1720292824.8733969,52.804393025205435,-67.42078255925766,605.740478515625,0.7228872179985046,0.17019450664520264,147.71266174316406,0,0.019233483451232106
1720292817889,1720292824.973403,52.804393021392144,-67.42078255901993,605.740478515625,0.7225137948989868,0.17003564536571503,147.71934509277344,0,0.015403352824314452
1720292817989,1720292825.073312,52.80439301820519,-67.42078255985703,605.740478515625,0.7185026407241821,0.16930192708969116,147.72129821777344,0,0.01873843036058104
1720292818089,1720292825.173357,52.80439301421476,-67.42078256089209,605.740478515625,0.7168430089950562,0.17064622044563293,147.72227478027344,0,0.014370990769609904
1720292818189,1720292825.2733529,52.80439300940305,-67.42078256214579,605.740478515625,0.7150030732154846,0.1690373718738556,147.7303924560547,0,0.01822385985089511
1720292818289,1720292825.373348,52.80439300539952,-67.42078255978632,605.740478515625,0.7150484323501587,0.17260175943374634,147.7325897216797,0,0.013348271278086398
1720292818389,1720292825.473409,52.804393001551624,-67.42078255722791,605.740478515625,0.7120782136917114,0.16943271458148956,147.7292938232422,0,0.016597563207479554
1720292818489,1720292825.573622,52.80439300078966,-67.42078255188623,605.740478515625,0.7105879187583923,0.1843787282705307,147.72122192382812,0,0.011738288097763356
1720292818589,1720292825.673769,52.80439299883673,-67.42078254646377,605.740478515625,0.7082826495170593,0.1564619094133377,147.716796875,0,0.015963508304321174
1720292818689,1720292825.773377,52.80439299914646,-67.42078254397398,605.740478515625,0.7031850218772888,0.17953011393547058,147.71145629882812,0,0.010983468003589595
1720292818790,1720292825.8733,52.804392998132485,-67.42078253971509,605.740478515625,0.7087454795837402,0.15600815415382385,147.70440673828125,0,0.013922789534900483
1720292818889,1720292825.973386,52.80439299755709,-67.42078253649923,605.7404174804688,0.7048529982566833,0.17872323095798492,147.69937133789062,0,0.00985359938226532
1720292818989,1720292826.073367,52.804392995482516,-67.42078253059238,605.7404174804688,0.7183065414428711,0.16338352859020233,147.69760131835938,0,0.01264610007467198
1720292819089,1720292826.173353,52.80439299343986,-67.42078252775892,605.7398681640625,0.7074505686759949,0.1740606129169464,147.70126342773438,0,0.010735834276519165
1720292819189,1720292826.273441,52.80439299112775,-67.42078252148946,605.7398681640625,0.7124009728431702,0.164521723985672,147.7047882080078,0,0.011190193446152992
1720292819289,1720292826.373399,52.80439299008929,-67.42078251763185,605.73974609375,0.7073525786399841,0.1763191670179367,147.70687866210938,0,0.011097021775232854
1720292819389,1720292826.4732878,52.80439298979188,-67.4207825127576,605.73974609375,0.7177833318710327,0.1675783097743988,147.7127227783203,0,0.010591519709388203
1720292819489,1720292826.57334,52.80439299066005,-67.42078250989105,605.73974609375,0.7084193825721741,0.17751750349998474,147.71522521972656,0,0.010372744005384902
1720292819589,1720292826.673352,52.80439299189513,-67.42078250439197,605.73974609375,0.7184867262840271,0.1663515865802765,147.7203369140625,0,0.009907743927916702
1720292819689,1720292826.77329,52.80439299259771,-67.42078249930057,605.73974609375,0.7043551802635193,0.17710623145103455,147.7207794189453,0,0.00934381536513023
1720292819790,1720292826.8733718,52.804392993567106,-67.42078249237116,605.73974609375,0.7154783010482788,0.16875150799751282,147.7285919189453,0,0.009086410730438902
1720292819891,1720292826.973496,52.80439299555807,-67.42078248872214,605.73974609375,0.7009931206703186,0.17265386879444122,147.73109436035156,0,0.008873946476043733
1720292819989,1720292827.07368,52.80439299822606,-67.42078248337471,605.73974609375,0.7093921303749084,0.16802340745925903,147.7335205078125,0,0.00815058979977009
1720292820089,1720292827.1733272,52.804393000883344,-67.42078248039145,605.7395629882812,0.6968608498573303,0.17396029829978943,147.73292541503906,0,0.007951956478718306
1720292820190,1720292827.27406,52.8043930040082,-67.42078247406391,605.7395629882812,0.7090499401092529,0.1667885184288025,147.73704528808594,0,0.0065575927907999786
1720292820289,1720292827.373268,52.80439300648775,-67.4207824697866,605.7394409179688,0.7011724710464478,0.17476937174797058,147.73939514160156,0,0.006917349785606782
1720292820389,1720292827.473377,52.804393009221656,-67.42078246238475,605.7394409179688,0.7073637843132019,0.16129659116268158,147.74127197265625,0,0.005483541221035168
1720292820490,1720292827.573303,52.804393012409804,-67.42078245592114,605.7393798828125,0.7044810056686401,0.17609632015228271,147.7432861328125,0,0.006510171260724553
1720292820589,1720292827.6733341,52.804393015104765,-67.42078244909635,605.7393798828125,0.7073338031768799,0.16144518554210663,147.74729919433594,0,0.006015043447303913
1720292820689,1720292827.7733052,52.804393018005406,-67.42078244498578,605.7389526367188,0.7004024386405945,0.17572766542434692,147.748291015625,0,0.007009054546197988
1720292820789,1720292827.873373,52.804393020285964,-67.42078243919431,605.7389526367188,0.702336311340332,0.16263751685619354,147.7476348876953,0,0.004645046397749208
1720292820890,1720292827.9740002,52.804393022020484,-67.42078243330887,605.7380981445312,0.6968036890029907,0.16791774332523346,147.7475128173828,0,0.006589594227603045
1720292820989,1720292828.07338,52.80439302326629,-67.42078242628536,605.7380981445312,0.698747456073761,0.16478927433490753,147.7500457763672,0,0.003926255619326235
1720292821091,1720292828.1733818,52.804393024567176,-67.42078242014662,605.737060546875,0.6943839192390442,0.16479526460170746,147.74803161621094,0,0.005769061740076917
1720292821189,1720292828.27329,52.804393026938676,-67.42078241316781,605.7369384765625,0.6983555555343628,0.16273197531700134,147.742431640625,0,0.005262833753355927
1720292821292,1720292828.373312,52.80439302830371,-67.42078240751748,605.7356567382812,0.6973403692245483,0.15987423062324524,147.74276733398438,0,0.005499585597333574
1720292821389,1720292828.473533,52.80439303069976,-67.42078240194802,605.7356567382812,0.7005198001861572,0.170598104596138,147.7412109375,0,0.005697151758144378
1720292821489,1720292828.573678,52.80439303178275,-67.42078239365074,605.7356567382812,0.6978679895401001,0.15976649522781372,147.7415771484375,0,0.006112140127772223
1720292821589,1720292828.673277,52.80439303418075,-67.42078238609726,605.7356567382812,0.6964751482009888,0.16689230501651764,147.74273681640625,0,0.007197149943423813
1720292821689,1720292828.7734342,52.80439303589228,-67.42078237917532,605.7356567382812,0.6964388489723206,0.15573297441005707,147.74172973632812,0,0.006328571207195026
1720292821789,1720292828.873363,52.804393039511055,-67.4207823727774,605.7356567382812,0.7005284428596497,0.17143361270427704,147.7393035888672,0,0.008424593700999397
1720292821889,1720292828.973322,52.80439304186699,-67.42078236612464,605.7356567382812,0.6973713636398315,0.1625065952539444,147.73239135742188,0,0.008593998921822962
1720292821989,1720292829.073313,52.804393045615484,-67.42078235975606,605.7356567382812,0.6992209553718567,0.18067315220832825,147.72093200683594,0,0.009800503272864292
1720292822089,1720292829.173404,52.80439304792383,-67.42078235233194,605.7356567382812,0.6985532641410828,0.16190089285373688,147.72193908691406,0,0.008766834041600583
1720292822189,1720292829.273294,52.80439305055448,-67.42078234681645,605.7356567382812,0.6995903253555298,0.16062256693840027,147.71644592285156,0,0.010471081231733384
1720292822289,1720292829.373354,52.80439305291876,-67.42078234300291,605.7356567382812,0.7007342576980591,0.16386814415454865,147.71636962890625,0,0.00808393693029074
1720292822389,1720292829.4732952,52.80439305489654,-67.42078233950843,605.7356567382812,0.7025377154350281,0.15811552107334137,147.7178955078125,0,0.010508785238367346
1720292822489,1720292829.573287,52.80439305802625,-67.42078233794203,605.7356567382812,0.7045280933380127,0.17735281586647034,147.7160186767578,0,0.008077791495941967
1720292822589,1720292829.6733189,52.80439306014641,-67.42078233579011,605.7356567382812,0.7028048634529114,0.1561039686203003,147.71560668945312,0,0.009577621465615378
1720292822689,1720292829.773313,52.80439306228563,-67.42078233409165,605.7356567382812,0.7070519328117371,0.17602388560771942,147.71726989746094,0,0.007322002183097335
1720292822789,1720292829.873374,52.80439306266624,-67.42078233200735,605.7356567382812,0.7056289315223694,0.15744219720363617,147.71780395507812,0,0.00896266350714729
1720292822889,1720292829.973513,52.8043930650512,-67.42078233132246,605.7356567382812,0.7116460204124451,0.18339428305625916,147.71456909179688,0,0.00786021352329092
1720292822989,1720292830.073746,52.80439306591001,-67.42078232923345,605.7356567382812,0.7058401107788086,0.1605163961648941,147.7141876220703,0,0.008778754405589178
1720292823089,1720292830.173292,52.80439306828716,-67.42078232861749,605.7356567382812,0.7063502669334412,0.1802970916032791,147.71450805664062,0,0.00817801523098962
1720292823189,1720292830.2732959,52.8043930688323,-67.42078232661609,605.7356567382812,0.7034721374511719,0.1670679897069931,147.71530151367188,0,0.008520404016764625
1720292823289,1720292830.373375,52.80439307065495,-67.42078232632416,605.7356567382812,0.7051141262054443,0.18424268066883087,147.71484375,0,0.009178098558939222
1720292823389,1720292830.4732668,52.804393072151115,-67.42078232528942,605.7356567382812,0.703209400177002,0.1679600030183792,147.71449279785156,0,0.009425808421050307
1720292823489,1720292830.573296,52.80439307558077,-67.42078232614735,605.7356567382812,0.7050021290779114,0.19199571013450623,147.715087890625,0,0.00986662097876316
1720292823589,1720292830.6733491,52.80439307770166,-67.42078232544664,605.7356567382812,0.7039374113082886,0.17423425614833832,147.71820068359375,0,0.009066857675179141
1720292823689,1720292830.773281,52.80439308240414,-67.42078232589331,605.7356567382812,0.7047803401947021,0.18887272477149963,147.71688842773438,0,0.01061377302942639
1720292823789,1720292830.873307,52.804393086784536,-67.42078232533217,605.7356567382812,0.7059490084648132,0.17444026470184326,147.7142791748047,0,0.009731412265010519
1720292823889,1720292830.9733481,52.804393092381034,-67.42078232541785,605.7356567382812,0.7063964605331421,0.19411435723304749,147.7160186767578,0,0.011711022011668138
1720292823989,1720292831.073359,52.804393096895055,-67.42078232386076,605.7356567382812,0.7052603363990784,0.17365112900733948,147.71632385253906,0,0.010463673373443087
1720292824089,1720292831.1733592,52.80439310240123,-67.4207823240402,605.7356567382812,0.706889808177948,0.19339272379875183,147.72067260742188,0,0.01240367929100996
1720292824189,1720292831.273321,52.804393106885236,-67.4207823235747,605.7356567382812,0.7113028168678284,0.18299473822116852,147.72398376464844,0,0.011199937005012013
1720292824289,1720292831.3734279,52.804393111884316,-67.42078232471157,605.7356567382812,0.7135170102119446,0.1914576143026352,147.72067260742188,0,0.013461338752443708
1720292824389,1720292831.473618,52.80439311717797,-67.42078232631276,605.7356567382812,0.7134617567062378,0.18857748806476593,147.71768188476562,0,0.011999211075282477
1720292824490,1720292831.573745,52.80439312176343,-67.42078232746992,605.7356567382812,0.7184343338012695,0.19107061624526978,147.7145538330078,0,0.014367484848310835
1720292824589,1720292831.673265,52.80439312655624,-67.42078232902034,605.7356567382812,0.7160520553588867,0.19768930971622467,147.71371459960938,0,0.012217129124785078
1720292824689,1720292831.773301,52.804393130779935,-67.42078232944476,605.7356567382812,0.719994306564331,0.18622660636901855,147.71218872070312,0,0.014409897330945902
1720292824789,1720292831.87327,52.804393136297556,-67.42078233180418,605.7356567382812,0.7201075553894043,0.1977163553237915,147.7058868408203,0,0.012849285052602412
1720292824889,1720292831.973381,52.80439314087795,-67.42078233358214,605.7356567382812,0.7244753241539001,0.19418352842330933,147.70408630371094,0,0.015519550899690007
1720292824989,1720292832.073806,52.80439314676789,-67.42078233821292,605.7356567382812,0.7214803695678711,0.20343708992004395,147.7025146484375,0,0.014874307227955946
1720292825089,1720292832.173238,52.80439315173255,-67.42078234141727,605.7356567382812,0.724814772605896,0.19302654266357422,147.7059783935547,0,0.017172718330696765
1720292825189,1720292832.273258,52.80439315545351,-67.42078234587201,605.7356567382812,0.722291111946106,0.20236347615718842,147.7104034423828,0,0.015477792574639234
1720292825289,1720292832.3732321,52.80439315809248,-67.42078234916569,605.7356567382812,0.7265422344207764,0.18784144520759583,147.71897888183594,0,0.017172914137954343
1720292825389,1720292832.473282,52.80439316173308,-67.42078235466,605.7356567382812,0.7264186143875122,0.20441430807113647,147.72389221191406,0,0.01618027726072969
1720292825489,1720292832.5732741,52.80439316319452,-67.42078235867146,605.7356567382812,0.724713146686554,0.18501663208007812,147.72723388671875,0,0.018404472568108142
1720292825589,1720292832.673219,52.80439316649231,-67.42078236529034,605.7356567382812,0.7226454615592957,0.20656362175941467,147.7240447998047,0,0.01792829235005804
1720292825689,1720292832.773244,52.80439316891756,-67.42078236941839,605.7356567382812,0.723946750164032,0.18887104094028473,147.7234344482422,0,0.018929772161639363
1720292825789,1720292832.873448,52.80439317401184,-67.42078237438592,605.7356567382812,0.7259137630462646,0.21217773854732513,147.72244262695312,0,0.01890800872624396
1720292825889,1720292832.973645,52.80439317608291,-67.42078237732174,605.7356567382812,0.7270780205726624,0.19352345168590546,147.72349548339844,0,0.01914570093530638
1720292825989,1720292833.073268,52.804393179549244,-67.42078238208597,605.7356567382812,0.7263270020484924,0.21770039200782776,147.72335815429688,0,0.019549560284297572
1720292826089,1720292833.1732328,52.804393181794104,-67.4207823846038,605.7356567382812,0.7300100326538086,0.19563357532024384,147.7252655029297,0,0.018950390892716554
1720292826189,1720292833.273281,52.804393184907525,-67.42078238957552,605.7356567382812,0.7320012450218201,0.21454651653766632,147.72488403320312,0,0.02036943626233602
1720292826289,1720292833.3732722,52.80439318539377,-67.42078239036026,605.7356567382812,0.7347437143325806,0.19243480265140533,147.72750854492188,0,0.01826309865928819
1720292826389,1720292833.473275,52.80439318807889,-67.42078239245396,605.7356567382812,0.7315564155578613,0.21406912803649902,147.72731018066406,0,0.022502281107083216
1720292826489,1720292833.5732968,52.80439318761705,-67.4207823942852,605.7356567382812,0.7263874411582947,0.19547177851200104,147.72842407226562,0,0.018243280429034222
1720292826589,1720292833.6732821,52.804393187315256,-67.42078239720625,605.7356567382812,0.7268261313438416,0.19801244139671326,147.72605895996094,0,0.02170029116972239
1720292826689,1720292833.773202,52.8043931849289,-67.42078239857233,605.7356567382812,0.7252517938613892,0.19618606567382812,147.7229461669922,0,0.01784539727735591
1720292826789,1720292833.873306,52.80439318278939,-67.42078239936535,605.7356567382812,0.7277647852897644,0.19667842984199524,147.7224884033203,0,0.020071750807977216
1720292826889,1720292833.973206,52.804393179537044,-67.4207823995112,605.7356567382812,0.7257288694381714,0.19538581371307373,147.72145080566406,0,0.018033467366739702
1720292826989,1720292834.073293,52.804393176988974,-67.42078240015958,605.7356567382812,0.7286849617958069,0.1958271861076355,147.72096252441406,0,0.0187818974202979
1720292827089,1720292834.173249,52.804393173680566,-67.42078240250567,605.7356567382812,0.7282010316848755,0.19135752320289612,147.72328186035156,0,0.017820852027050582
1720292827189,1720292834.2733219,52.80439317092217,-67.42078240652167,605.7356567382812,0.7343589067459106,0.20618385076522827,147.72210693359375,0,0.01843602565401945
1720292827289,1720292834.373478,52.80439316613507,-67.42078241085268,605.7356567382812,0.7298316955566406,0.19487369060516357,147.72120666503906,0,0.017260505611084016
1720292827389,1720292834.473757,52.804393163138705,-67.42078241507467,605.7356567382812,0.7373895049095154,0.2032555639743805,147.71875,0,0.01984583664351498
1720292827489,1720292834.573249,52.80439315647364,-67.4207824166427,605.7356567382812,0.7361025810241699,0.19375239312648773,147.7211456298828,0,0.016967535285698197
1720292827589,1720292834.67328,52.80439314981409,-67.42078241658139,605.7356567382812,0.7418025135993958,0.20381823182106018,147.724853515625,0,0.01844963260296123
1720292827689,1720292834.7732742,52.80439314238312,-67.42078241685219,605.7356567382812,0.7387350797653198,0.19707858562469482,147.72682189941406,0,0.015052210098495347
1720292827789,1720292834.8732412,52.804393136686784,-67.42078241726644,605.7356567382812,0.7413455247879028,0.18973132967948914,147.72779846191406,0,0.018271981781606654
1720292827889,1720292834.973281,52.8043931312644,-67.42078241862723,605.7356567382812,0.7422658205032349,0.19864362478256226,147.7248077392578,0,0.015338516102652935
1720292827989,1720292835.073206,52.80439312669097,-67.42078242099952,605.7356567382812,0.7410922646522522,0.19134527444839478,147.7212371826172,0,0.01750069086930148
1720292828089,1720292835.1732092,52.804393122810936,-67.42078242423874,605.7356567382812,0.7373115420341492,0.20397943258285522,147.7215118408203,0,0.015891986124944305
1720292828189,1720292835.273186,52.804393117732,-67.42078242712905,605.7356567382812,0.736163318157196,0.18905450403690338,147.72169494628906,0,0.016097610754319563
1720292828289,1720292835.3732321,52.80439311320815,-67.42078243070814,605.7356567382812,0.7366313338279724,0.20741230249404907,147.72474670410156,0,0.015186581713053902
1720292828389,1720292835.473202,52.804393107732835,-67.42078243492311,605.7356567382812,0.7367374300956726,0.19063261151313782,147.72569274902344,0,0.015501541956048257
1720292828489,1720292835.5732741,52.80439310415591,-67.42078244069218,605.7356567382812,0.7368434071540833,0.2084246724843979,147.7250518798828,0,0.0161510937040134
1720292828589,1720292835.673246,52.80439310081947,-67.42078244686027,605.7356567382812,0.7354100346565247,0.18530794978141785,147.72669982910156,0,0.016659753602942945
1720292828689,1720292835.773408,52.804393101027706,-67.42078245448327,605.7356567382812,0.7343879342079163,0.21205200254917145,147.72596740722656,0,0.018092850580625867
1720292828789,1720292835.873579,52.80439310031247,-67.42078246208135,605.7356567382812,0.7367604374885559,0.19048172235488892,147.72393798828125,0,0.017019126002561176
1720292828890,1720292835.973705,52.804393100898736,-67.42078247083447,605.7356567382812,0.7382407784461975,0.20989006757736206,147.72683715820312,0,0.019420562684959907
1720292828989,1720292836.073218,52.804393100132074,-67.42078247862109,605.7356567382812,0.7326915264129639,0.19000087678432465,147.7263641357422,0,0.016877471716512365
1720292829089,1720292836.173204,52.804393101441214,-67.42078248866791,605.7356567382812,0.7338671684265137,0.21871265769004822,147.72569274902344,0,0.020379350262250323
1720292829189,1720292836.273223,52.80439310144821,-67.42078249749413,605.7356567382812,0.7338439226150513,0.19345687329769135,147.72613525390625,0,0.017313194224505883
1720292829289,1720292836.3732328,52.80439310230593,-67.42078250676309,605.7356567382812,0.7303649187088013,0.2176140397787094,147.72927856445312,0,0.020315131073636427
1720292829389,1720292836.473233,52.8043931021972,-67.42078251630616,605.7356567382812,0.7323521375656128,0.19773395359516144,147.72918701171875,0,0.01721390240408602
1720292829489,1720292836.573226,52.80439310475084,-67.4207825253101,605.7356567382812,0.7320194840431213,0.21832175552845,147.73086547851562,0,0.022121866925259755
1720292829589,1720292836.673198,52.80439310644359,-67.42078253590671,605.7356567382812,0.7297990322113037,0.20662684738636017,147.7279052734375,0,0.01878049777281795
1720292829689,1720292836.773226,52.80439310952701,-67.42078254699476,605.7356567382812,0.7331136465072632,0.21534991264343262,147.72520446777344,0,0.02278544701560868
1720292829789,1720292836.873237,52.80439311286588,-67.42078256003694,605.7356567382812,0.7319474816322327,0.21789227426052094,147.7240447998047,0,0.020400249681578612
1720292829889,1720292836.973197,52.80439311598642,-67.42078257051337,605.7356567382812,0.7343274354934692,0.21934422850608826,147.71958923339844,0,0.024131155301446744
1720292829992,1720292837.07627,52.804393119658776,-67.42078258267311,605.7356567382812,0.735612154006958,0.22790969908237457,147.7168731689453,0,0.02095123667406181
1720292830089,1720292837.173256,52.80439312271009,-67.42078259334934,605.7356567382812,0.7343723773956299,0.22151325643062592,147.7148895263672,0,0.025377446127794773
1720292830189,1720292837.27339,52.80439312635898,-67.42078260571142,605.7356567382812,0.7349073886871338,0.23261865973472595,147.71438598632812,0,0.0219873535453027
1720292830289,1720292837.373594,52.80439312817285,-67.42078261454502,605.7356567382812,0.7386409640312195,0.2205246537923813,147.71607971191406,0,0.02581377784069637
1720292830389,1720292837.473258,52.80439313171899,-67.42078262594752,605.7356567382812,0.7384116649627686,0.23789183795452118,147.72125244140625,0,0.023776066896139935
1720292830489,1720292837.573225,52.804393133696536,-67.42078263372062,605.7356567382812,0.7423050999641418,0.22227510809898376,147.7242431640625,0,0.02665455552076195
1720292830589,1720292837.6731641,52.804393137425016,-67.42078264489832,605.7356567382812,0.7429109811782837,0.2375458925962448,147.7257537841797,0,0.025265534907169696
