systemTimeMs,TimeMs,gnssTime,latitudeDeg,longitudeDeg,altitude,rollDeg,pitchDeg,yawDeg,agl,hSpeed,Date,System Name,Longitude,Latitude,FP Height,H.Speed,Quality
1.72E+12,0,1720289972,52.7991894,-67.40825958,607.9884644,2.787558079,-1.655545354,86.02263641,3.450073242,2.324606666,7/6/2024,200,-67.40825958,52.7991894,594.5949847,2.324606666,0.956158382
1.72E+12,92,1720289972,52.79918957,-67.40825635,607.9920654,2.63855648,-1.387441635,86.04465485,3.450256348,2.311876969,,201.1794872,-67.40825739,52.79918987,594.6030106,2.32383788,0.955912998
1.72E+12,192,1720289972,52.79918976,-67.40825286,607.9972534,2.835367203,-1.490214348,86.03367615,3.450317383,2.305041542,,202.4615385,-67.40825501,52.79919038,594.6117343,2.323002244,0.955646277
1.72E+12,293,1720289972,52.79918996,-67.4082494,608.0010986,2.813517809,-1.329389095,85.98990631,3.450195313,2.304327405,,203.7564103,-67.40825261,52.79919089,594.6205454,2.322158252,0.955376888
1.72E+12,392,1720289972,52.79919017,-67.40824606,608.0040894,2.946804285,-1.217042565,85.94451141,3.450012207,2.278057092,,205.025641,-67.40825025,52.7991914,594.6291819,2.321330972,0.955112833
1.72E+12,492,1720289972,52.7991904,-67.40824263,608.0043335,3.320028305,-1.375752211,85.90228271,3.449951172,2.253215385,,206.3076923,-67.40824787,52.79919191,594.6379057,2.320495335,0.954846111
1.72E+12,592,1720289973,52.79919063,-67.40823924,608.0036621,3.657002449,-1.31629324,85.84884644,3.450256348,2.236250652,,207.5897436,-67.40824549,52.79919242,594.6466295,2.319659699,0.954579389
1.72E+12,692,1720289973,52.79919085,-67.40823586,608.0079346,3.652990103,-1.146167278,85.77937317,3.450256348,2.214068226,,208.8717949,-67.40824311,52.79919293,594.6553533,2.318824063,0.954312668
1.72E+12,792,1720289973,52.79919106,-67.4082325,608.0120239,4.025343418,-1.206187963,85.71565247,3.450256348,2.190286665,,210.1538462,-67.40824073,52.79919344,594.6640771,2.317988427,0.954045946
1.72E+12,892,1720289973,52.79919127,-67.40822916,608.0146484,4.179437637,-1.436712146,85.67320251,3.450073242,2.195492804,,211.4358974,-67.40823835,52.79919395,594.6728009,2.31715279,0.953779224
1.72E+12,992,1720289973,52.79919148,-67.40822583,608.0171509,4.073428154,-1.420715928,85.68859863,3.450256348,2.169423682,,212.7179487,-67.40823597,52.79919446,594.6815247,2.316317154,0.953512502
1.72E+12,1093,1720289973,52.79919167,-67.40822252,608.0215454,3.979153395,-1.234102011,85.76351929,3.450073242,2.163959941,,214.0128205,-67.40823357,52.79919497,594.6903357,2.315473162,0.953243113
1.72E+12,1192,1720289973,52.79919186,-67.40821922,608.024353,3.965794086,-1.160526991,85.79845428,3.450195313,2.139746103,,215.2820513,-67.40823121,52.79919548,594.6989723,2.314645882,0.952979059
1.72E+12,1292,1720289973,52.79919205,-67.40821595,608.0247803,4.032170773,-1.358176112,85.88806152,3.450073242,2.126889346,,216.5641026,-67.40822883,52.79919599,594.7076961,2.313810246,0.952712337
1.72E+12,1392,1720289973,52.79919224,-67.40821271,608.0249634,3.881541491,-1.538233519,85.96657562,3.449951172,2.134861344,,217.8461538,-67.40822645,52.7991965,594.7164199,2.312974609,0.952445615
1.72E+12,1495,1720289973,52.79919242,-67.40820946,608.0238037,3.636175871,-1.626582503,86.05458069,3.450012207,2.121126189,,219.1666667,-67.408224,52.79919702,594.7254054,2.312113904,0.952170892
1.72E+12,1593,1720289974,52.7991926,-67.40820622,608.0233154,3.747417927,-1.52185905,86.15338135,3.449951172,2.118813706,,220.4230769,-67.40822167,52.79919752,594.7339547,2.31129498,0.951909504
1.72E+12,1692,1720289974,52.79919279,-67.40820307,608.0211182,3.863745451,-1.27679348,86.25606537,3.449890137,2.110330065,,221.6923077,-67.40821931,52.79919803,594.7425913,2.310467701,0.95164545
1.72E+12,1792,1720289974,52.79919297,-67.40819985,608.0195313,3.855796337,-1.127363801,86.33557892,3.450073242,2.105242645,,222.974359,-67.40821693,52.79919854,594.7513151,2.309632064,0.951378728
1.72E+12,1892,1720289974,52.79919315,-67.4081966,608.0197144,3.97811532,-1.07354331,86.44202423,3.450012207,2.100869321,,224.2564103,-67.40821455,52.79919905,594.7600389,2.308796428,0.951112006
1.72E+12,1992,1720289974,52.79919332,-67.40819337,608.0194702,4.26193285,-0.986558735,86.56789398,3.449951172,2.102743208,,225.5384615,-67.40821217,52.79919956,594.7687627,2.307960792,0.950845284
1.72E+12,2092,1720289974,52.7991935,-67.40819015,608.0178833,4.310269356,-0.742016792,86.65406799,3.469909668,2.090943998,,226.8205128,-67.40820979,52.79920007,594.7774865,2.307125156,0.950578563
1.72E+12,2192,1720289974,52.79919366,-67.40818694,608.0161743,4.383907318,-0.562317193,86.78482819,3.50994873,2.069989712,,228.1025641,-67.40820741,52.79920058,594.7862103,2.306289519,0.950311841
1.72E+12,2292,1720289974,52.79919382,-67.40818379,608.0177612,4.442853928,-0.528973997,86.87380981,3.540039063,2.064220716,,229.3846154,-67.40820503,52.79920109,594.7949341,2.305453883,0.950045119
1.72E+12,2392,1720289974,52.79919396,-67.40818066,608.0202026,4.518476486,-0.570080459,86.92906952,3.540283203,2.04341302,,230.6666667,-67.40820265,52.7992016,594.8036579,2.304618247,0.949778397
1.72E+12,2492,1720289974,52.79919409,-67.40817752,608.0240479,4.603200912,-0.712067246,86.94735718,3.540161133,2.032447288,,231.9487179,-67.40820027,52.79920211,594.8123817,2.303782611,0.949511676
1.72E+12,2592,1720289975,52.79919421,-67.4081744,608.0269165,4.584628582,-0.830863476,86.93241882,3.540222168,2.024460822,,233.2307692,-67.40819789,52.79920262,594.8211054,2.302946974,0.949244954
1.72E+12,2692,1720289975,52.79919431,-67.40817128,608.0320435,4.716981411,-0.9075315,86.97415161,3.540222168,2.009819991,,234.5128205,-67.40819551,52.79920313,594.8298292,2.302111338,0.948978232
1.72E+12,2793,1720289975,52.79919441,-67.40816817,608.0371704,4.684216976,-0.940150261,87.03509521,3.540344238,2.015805671,,235.8076923,-67.4081931,52.79920364,594.8386403,2.301267346,0.948708843
1.72E+12,2893,1720289975,52.79919449,-67.40816507,608.0430908,4.625605583,-1.138329625,87.08111572,3.540344238,2.016332077,,237.0897436,-67.40819072,52.79920415,594.8473641,2.300431709,0.948442121
1.72E+12,2993,1720289975,52.79919456,-67.40816196,608.0490723,4.587055206,-1.272224426,87.18052673,3.540344238,2.009866716,,238.3717949,-67.40818834,52.79920466,594.8560879,2.299596073,0.948175399
1.72E+12,3092,1720289975,52.79919461,-67.40815898,608.0556641,4.428498268,-1.378852487,87.25435638,3.540161133,2.019292933,,239.6410256,-67.40818599,52.79920517,594.8647244,2.298768793,0.947911345
1.72E+12,3192,1720289975,52.79919466,-67.4081559,608.0614014,4.278349876,-1.558498383,87.29766083,3.540100098,2.02490083,,240.9230769,-67.40818361,52.79920568,594.8734482,2.297933157,0.947644623
1.72E+12,3292,1720289975,52.7991947,-67.40815284,608.0688477,4.28531456,-1.594054699,87.28340912,3.540283203,2.045669371,,242.2051282,-67.40818122,52.79920619,594.882172,2.297097521,0.947377901
1.72E+12,3392,1720289975,52.79919475,-67.40814977,608.074585,4.236666679,-1.616685867,87.30056763,3.540405273,2.038026866,,243.4871795,-67.40817884,52.7992067,594.8908958,2.296261884,0.94711118
1.72E+12,3496,1720289975,52.79919478,-67.4081467,608.0795288,4.104862213,-1.792370319,87.32017517,3.540283203,2.04794807,,244.8205128,-67.40817637,52.79920723,594.8999686,2.295392823,0.946833789
1.72E+12,3592,1720289976,52.79919481,-67.4081436,608.0837402,4.047522545,-1.968085527,87.32081604,3.540161133,2.064514489,,246.0512821,-67.40817408,52.79920772,594.9083434,2.294590612,0.946577736
1.72E+12,3692,1720289976,52.79919485,-67.4081405,608.0870972,4.001990795,-1.89287281,87.36612701,3.540039063,2.087954255,,247.3333333,-67.4081717,52.79920823,594.9170672,2.293754976,0.946311014
1.72E+12,3792,1720289976,52.79919488,-67.40813738,608.0870361,4.289432526,-1.738005519,87.36253357,3.539794922,2.097479668,,248.6153846,-67.40816932,52.79920874,594.925791,2.292919339,0.946044292
1.72E+12,3892,1720289976,52.7991949,-67.40813423,608.0827637,4.485470772,-1.993414402,87.30249786,3.539794922,2.10288654,,249.8974359,-67.40816694,52.79920925,594.9345148,2.292083703,0.945777571
1.72E+12,3992,1720289976,52.79919492,-67.40813107,608.0788574,4.435502529,-2.511452198,87.2342453,3.539916992,2.12004571,,251.1794872,-67.40816456,52.79920976,594.9432386,2.291248067,0.945510849
1.72E+12,4092,1720289976,52.79919493,-67.40812789,608.0773926,4.201311111,-2.555537939,87.25854492,3.539855957,2.149148171,,252.4615385,-67.40816218,52.79921027,594.9519624,2.290412431,0.945244127
1.72E+12,4193,1720289976,52.79919493,-67.40812468,608.0750732,4.034581184,-2.518340826,87.27856445,3.539916992,2.162608493,,253.7564103,-67.40815978,52.79921078,594.9607734,2.289568438,0.944974738
1.72E+12,4292,1720289976,52.79919493,-67.40812156,608.0738525,3.589341402,-2.385280132,87.31510925,3.539978027,2.177815104,,255.025641,-67.40815742,52.79921129,594.96941,2.288741158,0.944710684
1.72E+12,4392,1720289976,52.79919494,-67.40811834,608.0732422,3.222544432,-1.937955856,87.33738708,3.539978027,2.157293775,,256.3076923,-67.40815504,52.7992118,594.9781338,2.287905522,0.944443962
1.72E+12,4492,1720289976,52.79919494,-67.40811508,608.0719604,3.258382797,-1.680031538,87.33074188,3.539978027,2.166727768,,257.5897436,-67.40815266,52.79921231,594.9868576,2.287069886,0.94417724
1.72E+12,4592,1720289977,52.79919496,-67.40811182,608.0704956,3.237194061,-1.500952721,87.29859161,3.539978027,2.167885485,,258.8717949,-67.40815028,52.79921282,594.9955814,2.286234249,0.943910518
1.72E+12,4692,1720289977,52.79919498,-67.40810856,608.0689087,3.357913494,-1.29944551,87.31368256,3.539855957,2.148320322,,260.1538462,-67.4081479,52.79921333,595.0043052,2.285398613,0.943643796
1.72E+12,4792,1720289977,52.799195,-67.40810531,608.0669556,3.681090832,-1.459193587,87.31059265,3.539855957,2.151500194,,261.4358974,-67.40814552,52.79921384,595.013029,2.284562977,0.943377075
1.72E+12,4892,1720289977,52.79919502,-67.40810206,608.0652466,3.545935154,-1.788731575,87.25611115,3.539855957,2.160168343,,262.7179487,-67.40814314,52.79921435,595.0217527,2.283727341,0.943110353
1.72E+12,4992,1720289977,52.79919505,-67.4080988,608.0644531,3.256303072,-1.946231723,87.22856903,3.539978027,2.145554489,,264,-67.40814076,52.79921486,595.0304765,2.282891705,0.942843631
1.72E+12,5092,1720289977,52.79919508,-67.4080955,608.0644531,3.338685513,-2.076546669,87.20175934,3.539978027,2.147551585,,265.2820513,-67.40813838,52.79921537,595.0392003,2.282056068,0.942576909
1.72E+12,5192,1720289977,52.79919512,-67.40809219,608.0645142,3.402860641,-2.186554193,87.13031769,3.540039063,2.156922774,,266.5641026,-67.408136,52.79921588,595.0479241,2.281220432,0.942310188
1.72E+12,5292,1720289977,52.79919515,-67.40808887,608.0650635,3.587543249,-2.250481844,87.04868317,3.540039063,2.165982861,,267.8461538,-67.40813362,52.79921639,595.0566479,2.280384796,0.942043466
1.72E+12,5392,1720289977,52.79919518,-67.40808553,608.0667725,3.473952532,-2.24966383,87.06633759,3.540161133,2.167430153,,269.1282051,-67.40813124,52.7992169,595.0653717,2.27954916,0.941776744
1.72E+12,5493,1720289977,52.7991952,-67.40808217,608.0687256,3.237360477,-2.195423365,87.12786102,3.540100098,2.178703897,,270.4230769,-67.40812884,52.79921741,595.0741828,2.278705167,0.941507355
1.72E+12,5592,1720289978,52.79919523,-67.40807889,608.0700073,3.13993597,-2.130856514,87.1529541,3.539978027,2.184262593,,271.6923077,-67.40812648,52.79921792,595.0828193,2.277877887,0.9412433
1.72E+12,5692,1720289978,52.79919527,-67.40807555,608.0701294,3.192639589,-1.861765504,87.15955353,3.539978027,2.18540652,,272.974359,-67.4081241,52.79921843,595.0915431,2.277042251,0.940976579
1.72E+12,5792,1720289978,52.79919531,-67.40807221,608.0697632,3.296618938,-1.396489024,87.16583252,3.539978027,2.179038552,,274.2564103,-67.40812172,52.79921894,595.1002669,2.276206615,0.940709857
1.72E+12,5892,1720289978,52.79919535,-67.40806887,608.0706177,3.264420509,-1.031565905,87.1420517,3.540039063,2.167281387,,275.5384615,-67.40811934,52.79921945,595.1089907,2.275370978,0.940443135
1.72E+12,5992,1720289978,52.79919539,-67.40806555,608.0709839,3.391957521,-0.637106538,87.17351532,3.540100098,2.137074154,,276.8205128,-67.40811696,52.79921996,595.1177145,2.274535342,0.940176413
1.72E+12,6092,1720289978,52.79919543,-67.40806225,608.0731812,3.40580225,-0.16427651,87.19021606,3.540100098,2.11307833,,278.1025641,-67.40811458,52.79922047,595.1264383,2.273699706,0.939909692
1.72E+12,6192,1720289978,52.79919547,-67.408059,608.0744629,3.387821198,-0.108280368,87.19747925,3.549987793,2.084038022,,279.3846154,-67.4081122,52.79922098,595.1351621,2.27286407,0.93964297
1.72E+12,6292,1720289978,52.7991955,-67.40805583,608.0782471,3.346218348,-0.263063043,87.25215912,3.550170898,2.055385742,,280.6666667,-67.40810982,52.79922149,595.1438859,2.272028433,0.939376248
1.72E+12,6392,1720289978,52.79919554,-67.40805269,608.0835571,3.268757582,-0.449426502,87.30190277,3.540344238,2.02759396,,281.9487179,-67.40810744,52.799222,595.1526097,2.271192797,0.939109526
1.72E+12,6492,1720289978,52.79919558,-67.40804956,608.09021,3.348717928,-0.796105802,87.40065002,3.540283203,2.006442543,,283.2307692,-67.40810506,52.79922251,595.1613335,2.270357161,0.938842804
1.72E+12,6592,1720289979,52.79919562,-67.40804647,608.0948486,3.226364136,-1.186567068,87.48295593,3.540283203,2.005559045,,284.5128205,-67.40810268,52.79922302,595.1700573,2.269521525,0.938576083
1.72E+12,6693,1720289979,52.79919567,-67.40804338,608.1002197,2.967815638,-1.511606336,87.55239868,3.540283203,1.998444793,,285.8076923,-67.40810027,52.79922353,595.1788683,2.268677532,0.938306694
1.72E+12,6793,1720289979,52.79919573,-67.40804031,608.1057739,2.848032475,-1.67786777,87.60540771,3.540100098,1.993643586,,287.0897436,-67.40809789,52.79922404,595.1875921,2.267841896,0.938039972
1.72E+12,6892,1720289979,52.79919579,-67.40803733,608.1089478,3.060561419,-1.89438653,87.65814972,3.540100098,1.994524602,,288.3589744,-67.40809554,52.79922455,595.1962287,2.267014616,0.937775917
1.72E+12,6995,1720289979,52.79919587,-67.40803426,608.1115112,3.198142529,-1.85364759,87.71511078,3.539978027,2.011156802,,289.6794872,-67.40809308,52.79922507,595.2052142,2.266153911,0.937501194
1.72E+12,7092,1720289979,52.79919596,-67.40803121,608.109375,3.226570368,-1.879398346,87.76792908,3.539916992,2.015127941,,290.9230769,-67.40809077,52.79922557,595.2136763,2.265343343,0.937242474
1.72E+12,7192,1720289979,52.79919606,-67.40802814,608.1070557,3.374122143,-2.133956194,87.80423737,3.539916992,2.015244628,,292.2051282,-67.40808839,52.79922608,595.2224,2.264507707,0.936975752
1.72E+12,7292,1720289979,52.79919615,-67.40802509,608.1068726,3.468948841,-2.12006259,87.82396698,3.539978027,2.024790723,,293.4871795,-67.40808601,52.79922659,595.2311238,2.263672071,0.93670903
1.72E+12,7392,1720289979,52.79919625,-67.40802203,608.1049194,3.507603168,-2.095283508,87.81158447,3.539916992,2.033787554,,294.7692308,-67.40808363,52.7992271,595.2398476,2.262836435,0.936442308
1.72E+12,7498,1720289979,52.79919636,-67.4080188,608.1027832,3.651476383,-1.954554081,87.80161285,3.539978027,2.048025255,,296.1282051,-67.40808111,52.79922764,595.2490949,2.26195066,0.936159583
1.72E+12,7592,1720289980,52.79919646,-67.40801588,608.1000366,3.90366745,-2.186897278,87.7430191,3.539794922,2.049317282,,297.3333333,-67.40807887,52.79922812,595.2572952,2.261165162,0.935908865
1.72E+12,7692,1720289980,52.79919656,-67.40801278,608.0951538,3.936309814,-2.621415138,87.63661957,3.539672852,2.072146178,,298.6153846,-67.40807649,52.79922863,595.266019,2.260329526,0.935642143
1.72E+12,7792,1720289980,52.79919665,-67.40800965,608.0917358,3.694358349,-2.886290073,87.51210785,3.540039063,2.105888124,,299.8974359,-67.40807411,52.79922914,595.2747428,2.25949389,0.935375421
1.72E+12,7892,1720289980,52.79919674,-67.40800647,608.093811,3.513744831,-2.861407042,87.44135284,3.540100098,2.12317575,,301.1794872,-67.40807173,52.79922965,595.2834666,2.258658253,0.9351087
1.72E+12,7992,1720289980,52.79919682,-67.40800325,608.0959473,3.560004234,-2.927953482,87.39294434,3.540100098,2.150391372,,302.4615385,-67.40806935,52.79923016,595.2921904,2.257822617,0.934841978
1.72E+12,8093,1720289980,52.79919691,-67.40800003,608.0959473,3.443868399,-2.680280209,87.35791779,3.539916992,2.166006628,,303.7564103,-67.40806695,52.79923067,595.3010014,2.256978625,0.934572589
1.72E+12,8193,1720289980,52.799197,-67.40799677,608.0948486,3.418239594,-2.586648941,87.32943726,3.529907227,2.187788163,,305.0384615,-67.40806457,52.79923118,595.3097252,2.256142988,0.934305867
1.72E+12,8292,1720289980,52.79919708,-67.40799359,608.0922852,3.559923649,-2.70776701,87.29248047,3.50994873,2.205496228,,306.3076923,-67.40806221,52.79923169,595.3183618,2.255315708,0.934041812
1.72E+12,8392,1720289980,52.79919717,-67.40799029,608.0900269,3.355080366,-2.614188671,87.24949646,3.520019531,2.193874493,,307.5897436,-67.40805983,52.7992322,595.3270856,2.254480072,0.933775091
1.72E+12,8492,1720289980,52.79919726,-67.40798697,608.0874634,3.220211744,-2.459656715,87.2081604,3.539916992,2.209913449,,308.8717949,-67.40805745,52.79923271,595.3358094,2.253644436,0.933508369
1.72E+12,8592,1720289981,52.79919734,-67.40798365,608.0847168,3.205729246,-2.54430151,87.12812042,3.539916992,2.218312013,,310.1538462,-67.40805507,52.79923322,595.3445332,2.2528088,0.933241647
1.72E+12,8692,1720289981,52.79919743,-67.40798029,608.0844727,3.077226877,-2.523262739,87.04357147,3.539978027,2.209641432,,311.4358974,-67.40805269,52.79923373,595.353257,2.251973163,0.932974925
1.72E+12,8792,1720289981,52.79919752,-67.40797693,608.0848999,3.119665623,-2.251755714,86.99769592,3.540039063,2.213729083,,312.7179487,-67.40805031,52.79923424,595.3619808,2.251137527,0.932708204
1.72E+12,8892,1720289981,52.7991976,-67.40797356,608.0858154,3.238202333,-2.1224823,86.94371033,3.539978027,2.216458507,,314,-67.40804793,52.79923475,595.3707046,2.250301891,0.932441482
1.72E+12,8992,1720289981,52.79919769,-67.4079702,608.0857544,3.199227571,-2.069071054,86.88586426,3.519775391,2.206362686,,315.2820513,-67.40804555,52.79923525,595.3794284,2.249466255,0.93217476
1.72E+12,9092,1720289981,52.79919778,-67.40796683,608.0812988,3.180207729,-2.141185045,86.85784912,3.469787598,2.19677273,,316.5641026,-67.40804317,52.79923576,595.3881522,2.248630619,0.931908038
1.72E+12,9192,1720289981,52.79919787,-67.40796348,608.0768433,3.143639803,-2.120586157,86.87123108,3.449768066,2.188161576,,317.8461538,-67.40804079,52.79923627,595.396876,2.247794982,0.931641316
1.72E+12,9292,1720289981,52.79919797,-67.40796014,608.0723267,3.107726812,-1.982571721,86.90906525,3.469665527,2.192611661,,319.1282051,-67.40803841,52.79923678,595.4055998,2.246959346,0.931374595
1.72E+12,9393,1720289981,52.79919807,-67.40795681,608.0683594,3.199295521,-1.944723248,86.97348022,3.520080566,2.17718151,,320.4230769,-67.408036,52.7992373,595.4144108,2.246115353,0.931105206
1.72E+12,9492,1720289981,52.79919816,-67.40795355,608.0684204,3.0460186,-1.861040831,87.03181458,3.5,2.176268539,,321.6923077,-67.40803365,52.7992378,595.4230474,2.245288074,0.930841151
1.72E+12,9592,1720289982,52.79919827,-67.40795021,608.0687866,2.913648367,-1.492483139,87.1180954,3.459960938,2.166922133,,322.974359,-67.40803127,52.79923831,595.4317711,2.244452437,0.930574429
1.72E+12,9692,1720289982,52.79919837,-67.40794686,608.0684814,2.895748138,-1.545433879,87.14556122,3.450012207,2.148988351,,324.2564103,-67.40802889,52.79923882,595.4404949,2.243616801,0.930307708
1.72E+12,9793,1720289982,52.79919848,-67.40794353,608.067627,2.915401936,-1.840670466,87.18183136,3.450012207,2.143202656,,325.5512821,-67.40802648,52.79923934,595.449306,2.242772808,0.930038319
1.72E+12,9892,1720289982,52.7991986,-67.4079402,608.0683594,3.03144908,-1.914820552,87.1646347,3.450012207,2.13669841,,326.8205128,-67.40802413,52.79923984,595.4579425,2.241945529,0.929774264
1.72E+12,9992,1720289982,52.79919871,-67.40793687,608.0702515,3.272125959,-1.643621802,87.12962341,3.450378418,2.136706725,,328.1025641,-67.40802175,52.79924035,595.4666663,2.241109892,0.929507542
1.72E+12,10092,1720289982,52.79919881,-67.40793355,608.0749512,3.227767229,-1.79304266,87.15365601,3.450195313,2.123780362,,329.3846154,-67.40801937,52.79924086,595.4753901,2.240274256,0.92924082
1.72E+12,10192,1720289982,52.79919892,-67.40793024,608.0780029,3.071871758,-2.073536158,87.16646576,3.450134277,2.11937745,,330.6666667,-67.40801699,52.79924137,595.4841139,2.23943862,0.928974099
1.72E+12,10292,1720289982,52.79919902,-67.40792696,608.0828857,2.984351635,-1.752735615,87.18031311,3.450256348,2.127877262,,331.9487179,-67.40801461,52.79924188,595.4928377,2.238602984,0.928707377
1.72E+12,10392,1720289982,52.79919913,-67.40792369,608.0871582,3.24618578,-1.717272997,87.17037964,3.450134277,2.104519899,,333.2307692,-67.40801223,52.79924239,595.5015615,2.237767347,0.928440655
1.72E+12,10495,1720289982,52.79919923,-67.40792045,608.0879517,3.55997777,-1.888652086,87.18132782,3.450012207,2.085412458,,334.5512821,-67.40800977,52.79924292,595.510547,2.236906642,0.928165932
1.72E+12,10593,1720289983,52.79919933,-67.40791722,608.0884399,3.499406576,-1.93993175,87.1684494,3.450073242,2.093972868,,335.8076923,-67.40800744,52.79924342,595.5190963,2.236087718,0.927904544
1.72E+12,10693,1720289983,52.79919942,-67.40791401,608.0888672,3.354249001,-1.950074315,87.12182617,3.450012207,2.100268802,,337.0897436,-67.40800506,52.79924393,595.5278201,2.235252082,0.927637823
1.72E+12,10793,1720289983,52.79919951,-67.40791079,608.0898438,3.316258907,-2.118180752,87.09152222,3.450073242,2.091273037,,338.3717949,-67.40800268,52.79924444,595.5365439,2.234416446,0.927371101
1.72E+12,10892,1720289983,52.7991996,-67.40790766,608.0912476,3.211402416,-2.225545645,87.0483017,3.450073242,2.104698196,,339.6410256,-67.40800032,52.79924494,595.5451805,2.233589166,0.927107046
1.72E+12,10992,1720289983,52.79919969,-67.40790443,608.0922241,3.270300627,-2.202945709,87.0256424,3.450012207,2.107899529,,340.9230769,-67.40799794,52.79924545,595.5539043,2.23275353,0.926840324
1.72E+12,11092,1720289983,52.79919978,-67.40790119,608.0909424,3.288081169,-2.19713521,86.98458099,3.449951172,2.116057418,,342.2051282,-67.40799556,52.79924596,595.5626281,2.231917894,0.926573603
1.72E+12,11192,1720289983,52.79919988,-67.40789795,608.0896606,3.01072669,-2.139028072,86.94732666,3.449951172,2.116536729,,343.4871795,-67.40799318,52.79924647,595.5713519,2.231082257,0.926306881
1.72E+12,11292,1720289983,52.79919998,-67.40789475,608.0860596,2.644577026,-2.164999723,86.93904114,3.449829102,2.117870717,,344.7692308,-67.4079908,52.79924698,595.5800757,2.230246621,0.926040159
1.72E+12,11392,1720289983,52.79920009,-67.40789156,608.0817871,2.732307434,-2.360877514,86.91412354,3.449645996,2.121829964,,346.0512821,-67.40798842,52.79924749,595.5887995,2.229410985,0.925773437
1.72E+12,11492,1720289983,52.79920022,-67.40788837,608.0775757,2.706372738,-2.296152115,86.86347198,3.449890137,2.116817018,,347.3333333,-67.40798604,52.799248,595.5975233,2.228575349,0.925506716
1.72E+12,11592,1720289984,52.79920036,-67.40788519,608.0740967,2.320166588,-1.625409245,86.69248199,3.449768066,2.106492928,,348.6153846,-67.40798366,52.79924851,595.6062471,2.227739712,0.925239994
1.72E+12,11692,1720289984,52.79920051,-67.40788199,608.0704956,2.222403049,-1.329499364,86.35688782,3.449829102,2.088246902,,349.8974359,-67.40798128,52.79924902,595.6149709,2.226904076,0.924973272
1.72E+12,11792,1720289984,52.79920067,-67.40787883,608.0671387,2.259682655,-1.061011791,85.89002228,3.439880371,2.073823631,,351.1794872,-67.4079789,52.79924953,595.6236947,2.22606844,0.92470655
1.72E+12,11893,1720289984,52.79920085,-67.40787569,608.0654907,2.155849457,-0.930690646,85.27101135,3.449890137,2.066674682,,352.474359,-67.4079765,52.79925005,595.6325057,2.225224447,0.924437161
1.72E+12,11992,1720289984,52.79920104,-67.40787258,608.0637207,1.945715189,-0.952795684,84.55362701,3.449829102,2.0373318,,353.7435897,-67.40797414,52.79925055,595.6411422,2.224397167,0.924173107
1.72E+12,12092,1720289984,52.79920125,-67.40786958,608.0626221,1.861534595,-0.596126139,83.73771667,3.450012207,2.015924856,,355.025641,-67.40797176,52.79925106,595.649866,2.223561531,0.923906385
1.72E+12,12192,1720289984,52.79920149,-67.40786655,608.0626221,1.959871531,-0.274971485,82.84272003,3.440002441,1.986645501,,356.3076923,-67.40796938,52.79925157,595.6585898,2.222725895,0.923639663
1.72E+12,12292,1720289984,52.79920174,-67.40786355,608.0614014,1.749771118,-0.0839573,81.8846283,3.440002441,1.950750595,,357.5897436,-67.407967,52.79925208,595.6673136,2.221890259,0.923372941
1.72E+12,12392,1720289984,52.79920202,-67.40786061,608.0592651,1.604357958,0.16340071,80.86222076,3.440002441,1.924701084,,358.8717949,-67.40796462,52.79925259,595.6760374,2.221054622,0.92310622
1.72E+12,12492,1720289984,52.79920232,-67.40785773,608.0551758,1.530463696,0.56788069,79.75162506,3.439880371,1.89490404,,360.1538462,-67.40796224,52.7992531,595.6847612,2.220218986,0.922839498
1.72E+12,12592,1720289985,52.79920265,-67.4078549,608.0514526,1.45943141,0.758209407,78.58219147,3.42980957,1.86048084,,361.4358974,-67.40795986,52.79925361,595.693485,2.21938335,0.922572776
1.72E+12,12692,1720289985,52.799203,-67.40785211,608.0488281,1.398863077,0.7558164,77.33752441,3.399963379,1.829974222,,362.7179487,-67.40795748,52.79925412,595.7022088,2.218547714,0.922306054
1.72E+12,12792,1720289985,52.79920338,-67.40784938,608.046814,1.373944998,1.084593892,76.07567596,3.41986084,1.792934329,,364,-67.4079551,52.79925463,595.7109326,2.217712077,0.922039332
1.72E+12,12892,1720289985,52.79920379,-67.4078467,608.045166,1.432109475,1.360185742,74.76678467,3.439880371,1.757329625,,365.2820513,-67.40795272,52.79925514,595.7196564,2.216876441,0.921772611
1.72E+12,12992,1720289985,52.79920422,-67.4078441,608.0429077,1.563314557,1.23983717,73.3812027,3.439880371,1.712050557,,366.5641026,-67.40795034,52.79925565,595.7283802,2.216040805,0.921505889
1.72E+12,13092,1720289985,52.79920467,-67.40784154,608.0407715,1.761075139,0.982787728,71.93209839,3.439880371,1.692693879,,367.8461538,-67.40794796,52.79925616,595.737104,2.215205169,0.921239167
1.72E+12,13193,1720289985,52.79920514,-67.40783904,608.0396118,1.973147511,0.790952027,70.48290253,3.439941406,1.662577054,,369.1410256,-67.40794555,52.79925668,595.745915,2.214361176,0.920969778
1.72E+12,13293,1720289985,52.79920562,-67.40783657,608.0420532,1.692270637,0.732584834,68.95648193,3.450195313,1.633328966,,370.4230769,-67.40794317,52.79925719,595.7546388,2.21352554,0.920703056
1.72E+12,13392,1720289985,52.7992061,-67.40783421,608.0455933,1.373125196,0.729036808,67.44529724,3.450134277,1.624236921,,371.6923077,-67.40794082,52.79925769,595.7632754,2.21269826,0.920439002
1.72E+12,13492,1720289985,52.79920662,-67.40783182,608.0519409,1.306785345,0.451524228,65.85298157,3.450195313,1.601938709,,372.974359,-67.40793844,52.7992582,595.7719992,2.211862624,0.92017228
1.72E+12,13592,1720289986,52.79920717,-67.40782947,608.0587769,1.056319237,0.404469699,64.18138123,3.450195313,1.590940578,,374.2564103,-67.40793606,52.79925871,595.780723,2.211026988,0.919905558
1.72E+12,13692,1720289986,52.79920775,-67.40782715,608.0658569,0.8716501,0.489364177,62.43920135,3.450195313,1.584543798,,375.5384615,-67.40793368,52.79925922,595.7894468,2.210191351,0.919638836
1.72E+12,13792,1720289986,52.79920836,-67.40782486,608.0734253,0.947804034,0.346925408,60.61372757,3.450378418,1.584173893,,376.8205128,-67.4079313,52.79925973,595.7981706,2.209355715,0.919372115
1.72E+12,13892,1720289986,52.79920899,-67.40782261,608.0812378,0.81242615,0.442762375,58.82624817,3.450378418,1.558961483,,378.1025641,-67.40792892,52.79926024,595.8068944,2.208520079,0.919105393
1.72E+12,13995,1720289986,52.79920965,-67.4078204,608.0887451,0.751800418,0.532354116,56.98069,3.450317383,1.558493879,,379.4230769,-67.40792647,52.79926077,595.8158799,2.207659373,0.918830669
1.72E+12,14092,1720289986,52.79921034,-67.40781822,608.0942383,0.460424542,0.509544373,55.18480301,3.450256348,1.548324963,,380.6666667,-67.40792416,52.79926126,595.824342,2.206848806,0.918571949
1.72E+12,14192,1720289986,52.79921106,-67.4078161,608.0993652,0.189542979,0.326563925,53.35624695,3.470275879,1.536066612,,381.9487179,-67.40792178,52.79926177,595.8330657,2.20601317,0.918305228
1.72E+12,14292,1720289986,52.79921181,-67.40781402,608.1055908,0.120895617,0.34602192,51.52745819,3.520324707,1.529430991,,383.2307692,-67.4079194,52.79926228,595.8417895,2.205177534,0.918038506
1.72E+12,14392,1720289986,52.79921259,-67.40781199,608.112854,-0.059340339,0.605287611,49.71864319,3.540344238,1.523531029,,384.5128205,-67.40791702,52.79926279,595.8505133,2.204341898,0.917771784
1.72E+12,14492,1720289986,52.79921341,-67.40781,608.119751,-0.628265083,0.851703167,48.0450592,3.540283203,1.51292617,,385.7948718,-67.40791464,52.7992633,595.8592371,2.203506261,0.917505062
1.72E+12,14593,1720289987,52.79921427,-67.40780809,608.1262207,-1.19212842,0.953638792,46.3561821,3.540405273,1.493197046,,387.0897436,-67.40791223,52.79926382,595.8680482,2.202662269,0.917235673
1.72E+12,14692,1720289987,52.79921516,-67.40780628,608.1340942,-1.338853121,1.208216071,44.72173309,3.540161133,1.49030643,,388.3589744,-67.40790987,52.79926432,595.8766847,2.201834989,0.916971619
1.72E+12,14792,1720289987,52.7992161,-67.40780451,608.1427612,-1.173831582,1.045472741,42.91015244,3.560180664,1.47362985,,389.6410256,-67.40790749,52.79926483,595.8854085,2.200999353,0.916704897
1.72E+12,14892,1720289987,52.79921709,-67.40780278,608.1513062,-1.177409053,0.452051073,41.05391312,3.610229492,1.472534061,,390.9230769,-67.40790511,52.79926534,595.8941323,2.200163716,0.916438175
1.72E+12,14992,1720289987,52.79921813,-67.40780112,608.1607666,-1.375046015,0.32695812,39.12924957,3.630310059,1.486523274,,392.2051282,-67.40790273,52.79926585,595.9028561,2.19932808,0.916171453
1.72E+12,15092,1720289987,52.7992192,-67.40779948,608.1712036,-1.527420402,0.015714506,37.23608017,3.640258789,1.492252904,,393.4871795,-67.40790035,52.79926636,595.9115799,2.198492444,0.915904732
1.72E+12,15192,1720289987,52.79922033,-67.4077979,608.1810913,-1.569432616,-0.463794708,35.31755066,3.640563965,1.518271369,,394.7692308,-67.40789797,52.79926687,595.9203037,2.197656808,0.91563801
1.72E+12,15292,1720289987,52.7992215,-67.40779636,608.192749,-1.36559844,-0.315149128,33.47669601,3.640563965,1.551318862,,396.0512821,-67.40789559,52.79926738,595.9290275,2.196821171,0.915371288
1.72E+12,15392,1720289987,52.79922272,-67.40779485,608.2022705,-1.212152839,-0.214594021,31.64432907,3.640625,1.572636605,,397.3333333,-67.40789321,52.79926789,595.9377513,2.195985535,0.915104566
1.72E+12,15492,1720289987,52.79922399,-67.40779336,608.2120972,-1.438141823,-0.231123224,29.90679359,3.640563965,1.59399565,,398.6153846,-67.40789083,52.7992684,595.9464751,2.195149899,0.914837844
1.72E+12,15592,1720289988,52.79922529,-67.40779193,608.2210693,-2.086967707,0.37596634,28.13162041,3.660461426,1.608613856,,399.8974359,-67.40788845,52.79926891,595.9551989,2.194314263,0.914571123
1.72E+12,15692,1720289988,52.79922663,-67.40779053,608.2306519,-2.628337622,0.853849411,26.40892792,3.720397949,1.606348924,,401.1794872,-67.40788607,52.79926942,595.9639227,2.193478626,0.914304401
1.72E+12,15793,1720289988,52.799228,-67.40778922,608.2390747,-2.5503757,1.115320921,24.58153343,3.730407715,1.602846829,,402.474359,-67.40788367,52.79926994,595.9727337,2.192634634,0.914035012
1.72E+12,15893,1720289988,52.7992294,-67.40778797,608.2475586,-2.293922901,1.314728141,22.75402832,3.73034668,1.578552437,,403.7564103,-67.40788129,52.79927045,595.9814575,2.191798998,0.91376829
1.72E+12,15995,1720289988,52.79923076,-67.40778683,608.2542114,-2.361575842,1.562248707,20.89437675,3.730285645,1.55651745,,405.0641026,-67.40787886,52.79927097,595.9903558,2.190946649,0.913496234
1.72E+12,16092,1720289988,52.79923218,-67.40778569,608.2634888,-2.580220222,1.719181895,19.04683304,3.730163574,1.547955348,,406.3076923,-67.40787655,52.79927146,595.9988179,2.190136081,0.913237514
1.72E+12,16192,1720289988,52.79923358,-67.40778465,608.2703857,-3.000910997,1.721304536,17.25260544,3.730224609,1.516702445,,407.5897436,-67.40787417,52.79927197,596.0075417,2.189300445,0.912970792
1.72E+12,16292,1720289988,52.79923499,-67.40778367,608.2801514,-3.546516657,1.434331179,15.51013374,3.730285645,1.481473868,,408.8717949,-67.40787179,52.79927248,596.0162655,2.188464809,0.91270407
1.72E+12,16392,1720289988,52.79923641,-67.40778277,608.2913818,-3.955017567,0.904688954,13.78232765,3.730285645,1.477554356,,410.1538462,-67.40786941,52.79927299,596.0249893,2.187629173,0.912437348
1.72E+12,16492,1720289988,52.79923786,-67.40778194,608.3016968,-4.3943367,0.409337491,12.09505844,3.73046875,1.478560255,,411.4358974,-67.40786703,52.7992735,596.0337131,2.186793536,0.912170627
1.72E+12,16592,1720289989,52.79923932,-67.40778122,608.3106689,-4.779821396,0.336239964,10.39266872,3.73046875,1.461989312,,412.7179487,-67.40786465,52.79927401,596.0424368,2.1859579,0.911903905
1.72E+12,16692,1720289989,52.79924083,-67.40778057,608.319519,-5.254523277,0.137885377,8.738708496,3.730407715,1.490957051,,414,-67.40786227,52.79927452,596.0511606,2.185122264,0.911637183
1.72E+12,16792,1720289989,52.79924233,-67.40778004,608.3243408,-5.392663956,-0.000289039,7.051382542,3.730285645,1.476867255,,415.2820513,-67.40785989,52.79927503,596.0598844,2.184286628,0.911370461
1.72E+12,16892,1720289989,52.79924388,-67.40777957,608.3299561,-5.208659649,-0.107250124,5.355905056,3.730285645,1.503088385,,416.5641026,-67.40785751,52.79927554,596.0686082,2.183450991,0.91110374
1.72E+12,16995,1720289989,52.79924542,-67.40777921,608.3330688,-5.135859013,-0.286758751,3.662473917,3.74017334,1.517342904,,417.8846154,-67.40785506,52.79927607,596.0775937,2.182590286,0.910829016
1.72E+12,17092,1720289989,52.79924701,-67.40777891,608.3341675,-5.464268208,-0.614070654,2.005590916,3.739990234,1.523029999,,419.1282051,-67.40785275,52.79927656,596.0860558,2.181779719,0.910570296
1.72E+12,17193,1720289989,52.79924859,-67.40777873,608.3341064,-5.349985123,-0.833330989,0.315024465,3.729858398,1.546932956,,420.4230769,-67.40785034,52.79927708,596.0948669,2.180935726,0.910300907
1.72E+12,17292,1720289989,52.79925018,-67.40777861,608.3308105,-5.247601986,-1.032804132,-1.356447458,3.739929199,1.591028703,,421.6923077,-67.40784799,52.79927758,596.1035034,2.180108447,0.910036852
1.72E+12,17392,1720289989,52.7992518,-67.40777859,608.3270874,-5.259759903,-0.92621392,-3.10790205,3.739990234,1.594639726,,422.974359,-67.40784561,52.79927809,596.1122272,2.17927281,0.909770131
1.72E+12,17492,1720289989,52.79925346,-67.40777862,608.3217163,-4.941021919,-1.052633405,-4.807039261,3.729797363,1.614149308,,424.2564103,-67.40784323,52.7992786,596.120951,2.178437174,0.909503409
1.72E+12,17592,1720289990,52.79925512,-67.40777875,608.3145752,-4.893419743,-1.116614223,-6.505702496,3.729797363,1.643892075,,425.5384615,-67.40784085,52.79927911,596.1296748,2.177601538,0.909236687
1.72E+12,17692,1720289990,52.79925679,-67.40777894,608.3063965,-5.040407658,-1.228011012,-8.135110855,3.729736328,1.642668537,,426.8205128,-67.40783847,52.79927962,596.1383986,2.176765902,0.908969965
1.72E+12,17792,1720289990,52.79925845,-67.40777923,608.296814,-5.15665102,-1.463422418,-9.789439201,3.729553223,1.660618804,,428.1025641,-67.40783609,52.79928013,596.1471224,2.175930265,0.908703244
1.72E+12,17892,1720289990,52.79926014,-67.4077796,608.2897949,-5.257166862,-1.753785729,-11.29109478,3.729614258,1.668100572,,429.3846154,-67.40783371,52.79928064,596.1558462,2.175094629,0.908436522
1.72E+12,17992,1720289990,52.79926182,-67.40778007,608.2832031,-5.309185505,-2.035984039,-12.75401211,3.729431152,1.682233553,,430.6666667,-67.40783133,52.79928115,596.16457,2.174258993,0.9081698
1.72E+12,18092,1720289990,52.79926352,-67.40778061,608.272522,-5.150170803,-2.12890029,-14.04721832,3.729431152,1.709960786,,431.9487179,-67.40782895,52.79928166,596.1732938,2.173423357,0.907903078
1.72E+12,18192,1720289990,52.79926521,-67.40778126,608.2615356,-4.854406357,-2.656188488,-15.2647028,3.699462891,1.727245904,,433.2307692,-67.40782657,52.79928217,596.1820176,2.17258772,0.907636356
1.72E+12,18292,1720289990,52.79926692,-67.40778195,608.2514038,-4.839338303,-3.682073116,-16.22420502,3.649414063,1.765779132,,434.5128205,-67.40782419,52.79928268,596.1907414,2.171752084,0.907369635
1.72E+12,18394,1720289990,52.79926863,-67.40778273,608.2407227,-4.830138206,-4.400653839,-17.01470947,3.639404297,1.823232735,,435.8205128,-67.40782176,52.7992832,596.1996396,2.170899735,0.907097578
1.72E+12,18493,1720289990,52.79927039,-67.40778359,608.2315674,-4.570286274,-4.352425575,-17.62485886,3.659606934,1.876308872,,437.0897436,-67.4078194,52.79928371,596.2082762,2.170072455,0.906833524
1.72E+12,18592,1720289991,52.79927212,-67.40778451,608.2250977,-4.096377373,-3.668296576,-18.17868996,3.659851074,1.90788808,,438.3589744,-67.40781704,52.79928421,596.2169128,2.169245175,0.906569469
1.72E+12,18692,1720289991,52.79927394,-67.40778549,608.2182617,-3.827326059,-3.09164381,-18.40571022,3.639770508,1.931454099,,439.6410256,-67.40781466,52.79928472,596.2256366,2.168409539,0.906302748
1.72E+12,18792,1720289991,52.79927574,-67.40778651,608.2098389,-4.441999912,-3.201431036,-18.44919777,3.639953613,1.930674789,,440.9230769,-67.40781228,52.79928523,596.2343604,2.167573903,0.906036026
1.72E+12,18892,1720289991,52.79927759,-67.40778758,608.2038574,-5.251688004,-3.340651989,-18.31386566,3.639831543,1.955528559,,442.2051282,-67.4078099,52.79928574,596.2430841,2.166738267,0.905769304
1.72E+12,18994,1720289991,52.79927942,-67.40778871,608.1953735,-5.346936703,-3.183755398,-18.07818222,3.639709473,1.97636354,,443.5128205,-67.40780748,52.79928626,596.2519824,2.165885918,0.905497248
1.72E+12,19092,1720289991,52.79928128,-67.40778991,608.1843872,-5.479916573,-3.348288774,-17.7109127,3.639465332,2.011358284,,444.7692308,-67.40780514,52.79928676,596.2605317,2.165066994,0.90523586
1.72E+12,19192,1720289991,52.79928312,-67.40779119,608.1742554,-5.830276966,-3.647056818,-17.33068466,3.629577637,2.036121083,,446.0512821,-67.40780276,52.79928727,596.2692555,2.164231358,0.904969139
1.72E+12,19292,1720289991,52.79928498,-67.40779252,608.1641235,-5.372980118,-3.884821177,-16.9291172,3.629455566,2.092066063,,447.3333333,-67.40780038,52.79928778,596.2779793,2.163395722,0.904702417
1.72E+12,19392,1720289991,52.79928686,-67.40779393,608.1543579,-4.709856033,-4.084679127,-16.57124519,3.629516602,2.140210443,,448.6153846,-67.407798,52.79928829,596.2867031,2.162560085,0.904435695
1.72E+12,19500,1720289991,52.79928884,-67.40779543,608.1439209,-4.563805103,-3.941113949,-16.2570076,3.629150391,2.161657598,7/6/2024,450,-67.40779543,52.79928884,596.2961248,2.161657598,0.904147636
1.72E+12,19592,1720289992,52.79929073,-67.4077969,608.1330566,-4.375961781,-4.064825535,-16.01363182,3.629455566,2.196548979,,450,-67.40779655,52.79929058,596.2749093,2.161794413,0.904353382
1.72E+12,19692,1720289992,52.7992927,-67.40779843,608.1242065,-4.127664566,-4.030457497,-15.81497383,3.599609375,2.197426725,,450,-67.40779778,52.79929247,596.2518489,2.161943124,0.904577019
1.72E+12,19792,1720289992,52.79929468,-67.4078,608.1182251,-4.153839588,-3.365712643,-15.67325401,3.549804688,2.239308238,,450,-67.407799,52.79929435,596.2287885,2.162091836,0.904800656
1.72E+12,19892,1720289992,52.79929663,-67.40780154,608.1156616,-4.287378788,-2.74859333,-15.56856918,3.549987793,2.223382389,,450,-67.40780022,52.79929624,596.2057281,2.162240547,0.905024293
1.72E+12,19992,1720289992,52.79929862,-67.40780314,608.112854,-4.008723736,-2.329480886,-15.49676228,3.549987793,2.212772752,,450,-67.40780144,52.79929813,596.1826677,2.162389259,0.90524793
1.72E+12,20092,1720289992,52.79930062,-67.40780475,608.1105347,-3.688359022,-1.970458746,-15.38800812,3.549926758,2.21947194,,450,-67.40780266,52.79930002,596.1596073,2.16253797,0.905471567
1.72E+12,20192,1720289992,52.79930259,-67.40780635,608.1083374,-3.627076387,-1.64311254,-15.29657936,3.549926758,2.158919877,,450,-67.40780388,52.79930191,596.1365469,2.162686682,0.905695204
1.72E+12,20292,1720289992,52.79930456,-67.40780794,608.1057739,-3.503874063,-1.299715996,-15.25598907,3.539855957,2.152407873,,450,-67.4078051,52.7993038,596.1134865,2.162835393,0.905918841
1.72E+12,20392,1720289992,52.7993065,-67.4078095,608.1011353,-2.844353437,-1.256633639,-15.21090794,3.539672852,2.103553184,,450,-67.40780632,52.79930568,596.0904261,2.162984105,0.906142479
1.72E+12,20492,1720289992,52.79930844,-67.40781103,608.0971069,-2.956135035,-1.169531584,-15.16949558,3.539794922,2.082565256,,450,-67.40780754,52.79930757,596.0673657,2.163132816,0.906366116
1.72E+12,20592,1720289993,52.79931034,-67.40781253,608.0940552,-3.25833559,-1.294738412,-15.21757603,3.540344238,2.046679274,,450,-67.40780877,52.79930946,596.0443053,2.163281528,0.906589753
1.72E+12,20692,1720289993,52.79931225,-67.40781401,608.0986938,-3.453091383,-2.238029003,-15.24289417,3.540161133,2.041157777,,450,-67.40780999,52.79931135,596.0212449,2.163430239,0.90681339
1.72E+12,20792,1720289993,52.79931414,-67.40781547,608.1032715,-3.614286423,-2.504974842,-15.29521656,3.540100098,2.016824738,,450,-67.40781121,52.79931324,595.9981845,2.163578951,0.907037027
1.72E+12,20892,1720289993,52.79931603,-67.40781694,608.1062622,-3.999572277,-2.630872726,-15.3810873,3.540161133,2.025307069,,450,-67.40781243,52.79931513,595.9751241,2.163727662,0.907260664
1.72E+12,20992,1720289993,52.7993179,-67.40781841,608.1092529,-3.515084743,-2.795926332,-15.52362728,3.540161133,2.012845974,,450,-67.40781365,52.79931702,595.9520637,2.163876374,0.907484301
1.72E+12,21093,1720289993,52.79931979,-67.40781984,608.1126709,-3.364685297,-2.834651232,-15.62386799,3.540222168,2.010333174,,450,-67.40781488,52.79931892,595.9287727,2.164026572,0.907710175
1.72E+12,21192,1720289993,52.79932161,-67.40782121,608.1148071,-3.507344961,-2.835072279,-15.73814392,3.540039063,2.016688162,,450,-67.40781609,52.79932079,595.9059429,2.164173797,0.907931575
1.72E+12,21292,1720289993,52.79932349,-67.40782259,608.1154785,-3.171780109,-2.792097807,-15.83436966,3.540039063,2.031458905,,450,-67.40781731,52.79932268,595.8828825,2.164322508,0.908155213
1.72E+12,21392,1720289993,52.79932535,-67.40782397,608.1151733,-3.325500965,-2.872921228,-15.93411446,3.539978027,2.022613354,,450,-67.40781853,52.79932457,595.8598221,2.16447122,0.90837885
1.72E+12,21492,1720289993,52.79932723,-67.40782534,608.1142578,-3.059929132,-2.952047825,-16.06299019,3.539916992,2.028685141,,450,-67.40781975,52.79932646,595.8367618,2.164619931,0.908602487
1.72E+12,21592,1720289994,52.79932909,-67.40782669,608.1118774,-2.925462246,-2.821733475,-16.16859245,3.539916992,2.017562444,,450,-67.40782098,52.79932835,595.8137014,2.164768643,0.908826124
1.72E+12,21692,1720289994,52.79933095,-67.40782798,608.1134644,-3.274469852,-2.32099247,-16.31290054,3.539978027,1.995116725,,450,-67.4078222,52.79933023,595.790641,2.164917354,0.909049761
1.72E+12,21792,1720289994,52.79933278,-67.40782926,608.112915,-3.472886086,-2.105427504,-16.4042511,3.540039063,1.99492919,,450,-67.40782342,52.79933212,595.7675806,2.165066066,0.909273398
1.72E+12,21892,1720289994,52.7993346,-67.4078305,608.1132202,-3.705891132,-2.78754878,-16.41235542,3.539978027,1.976514452,,450,-67.40782464,52.79933401,595.7445202,2.165214777,0.909497035
1.72E+12,21995,1720289994,52.79933641,-67.40783173,608.1137085,-4.092903137,-3.152845621,-16.47022438,3.510070801,1.994600549,,450,-67.4078259,52.79933596,595.720768,2.16536795,0.909727381
1.72E+12,22092,1720289994,52.79933823,-67.40783296,608.1166382,-4.466966152,-3.311335087,-16.47836113,3.460144043,1.993906527,,450,-67.40782708,52.79933779,595.6983994,2.1655122,0.909944309
1.72E+12,22192,1720289994,52.79934004,-67.40783421,608.1196899,-4.432313442,-3.851283789,-16.49045753,3.49017334,1.995951109,,450,-67.4078283,52.79933968,595.675339,2.165660912,0.910167947
1.72E+12,22293,1720289994,52.79934184,-67.40783545,608.1205444,-3.965799093,-4.108056068,-16.48807526,3.539916992,2.022505615,,450,-67.40782953,52.79934158,595.652048,2.16581111,0.91039382
1.72E+12,22393,1720289994,52.79934363,-67.40783669,608.1195679,-3.857890606,-4.163974285,-16.49538422,3.530090332,2.029871609,,450,-67.40783076,52.79934347,595.6289876,2.165959822,0.910617457
1.72E+12,22492,1720289994,52.7993454,-67.40783786,608.1213379,-4.313980103,-4.319367886,-16.49324989,3.479980469,2.035799738,,450,-67.40783196,52.79934534,595.6061578,2.166107046,0.910838858
1.72E+12,22592,1720289995,52.79934721,-67.40783908,608.1210327,-4.561560154,-4.34525919,-16.48251343,3.450012207,2.065753435,,450,-67.40783319,52.79934723,595.5830974,2.166255758,0.911062495
1.72E+12,22692,1720289995,52.79934905,-67.40784031,608.1212769,-4.593274117,-4.287835121,-16.46640205,3.460021973,2.085625372,,450,-67.40783441,52.79934912,595.560037,2.166404469,0.911286132
1.72E+12,22792,1720289995,52.7993509,-67.40784157,608.1207275,-4.772982121,-3.949548721,-16.49575424,3.460021973,2.103525603,,450,-67.40783563,52.79935101,595.5369766,2.166553181,0.911509769
1.72E+12,22892,1720289995,52.79935275,-67.40784283,608.1177979,-4.616447449,-3.45904088,-16.44486427,3.449890137,2.118134439,,450,-67.40783685,52.79935289,595.5139162,2.166701892,0.911733406
1.72E+12,22995,1720289995,52.79935461,-67.40784411,608.1143188,-4.627761364,-3.893280506,-16.30426598,3.449890137,2.12690635,,450,-67.40783811,52.79935484,595.490164,2.166855065,0.911963753
1.72E+12,23092,1720289995,52.79935648,-67.40784539,608.112793,-5.006912708,-4.757880211,-16.13825417,3.449890137,2.160029268,,450,-67.40783929,52.79935667,595.4677954,2.166999315,0.912180681
1.72E+12,23192,1720289995,52.79935837,-67.40784671,608.1105347,-4.685037136,-5.733743191,-16.02752113,3.449890137,2.206812616,,450,-67.40784051,52.79935856,595.444735,2.167148027,0.912404318
1.72E+12,23292,1720289995,52.79936029,-67.40784803,608.1046753,-4.687977314,-6.013147354,-15.95778751,3.449707031,2.269611781,,450,-67.40784173,52.79936045,595.4216746,2.167296738,0.912627955
1.72E+12,23392,1720289995,52.79936226,-67.40784938,608.0973511,-5.29706192,-5.710803509,-15.88118553,3.449584961,2.316047074,,450,-67.40784295,52.79936234,595.3986142,2.16744545,0.912851592
1.72E+12,23492,1720289995,52.79936426,-67.40785075,608.0874634,-5.656734943,-5.414513588,-15.84168434,3.439453125,2.380070805,,450,-67.40784418,52.79936423,595.3755538,2.167594161,0.913075229
1.72E+12,23592,1720289996,52.79936629,-67.40785218,608.0750732,-5.424576759,-4.676465988,-15.8831377,3.439208984,2.390232555,,450,-67.4078454,52.79936611,595.3524934,2.167742873,0.913298866
1.72E+12,23692,1720289996,52.79936832,-67.40785363,608.0595703,-5.299471855,-4.062527657,-15.95994568,3.43927002,2.429851519,,450,-67.40784662,52.799368,595.3294331,2.167891584,0.913522503
1.72E+12,23792,1720289996,52.79937029,-67.40785508,608.0452881,-4.997669697,-3.972730875,-16.03935623,3.409606934,2.423503139,,450,-67.40784784,52.79936989,595.3063727,2.168040296,0.91374614
1.72E+12,23892,1720289996,52.79937233,-67.40785657,608.0269165,-3.784439325,-3.615784407,-16.14171982,3.359619141,2.414227805,,450,-67.40784906,52.79937178,595.2833123,2.168189007,0.913969778
1.72E+12,23993,1720289996,52.79937442,-67.40785811,608.0116577,-4.276246071,-3.093681812,-16.24046326,3.349182129,2.393441023,,450,-67.40785029,52.79937369,595.2600213,2.168339206,0.914195651
1.72E+12,24092,1720289996,52.79937638,-67.40785956,607.9980469,-4.264100552,-2.578297615,-16.35771179,3.319580078,2.375039074,,450,-67.4078515,52.79937556,595.2371915,2.16848643,0.914417052
1.72E+12,24192,1720289996,52.79937834,-67.40786105,607.9849243,-3.244763374,-2.168730974,-16.52292442,3.269714355,2.309372716,,450,-67.40785272,52.79937744,595.2141311,2.168635142,0.914640689
1.72E+12,24292,1720289996,52.79938028,-67.4078625,607.9740601,-3.070360184,-1.58401978,-16.70880318,3.259765625,2.250496283,,450,-67.40785394,52.79937933,595.1910707,2.168783853,0.914864326
1.72E+12,24392,1720289996,52.79938217,-67.40786392,607.9654541,-2.994626999,-1.428004026,-16.87796211,3.259338379,2.171700988,,450,-67.40785516,52.79938122,595.1680103,2.168932565,0.915087963
1.72E+12,24495,1720289996,52.79938406,-67.4078653,607.9523926,-2.57697463,-1.576942444,-16.92309761,3.259399414,2.10732489,,450,-67.40785642,52.79938317,595.1442581,2.169085737,0.915318309
1.72E+12,24592,1720289997,52.79938589,-67.40786663,607.9424438,-2.337718487,-1.97714901,-16.94909096,3.25958252,2.029200846,,450,-67.40785761,52.799385,595.1218895,2.169229988,0.915535237
1.72E+12,24692,1720289997,52.7993877,-67.40786791,607.9351807,-2.347855568,-2.561424017,-16.94373703,3.25970459,2.007944687,,450,-67.40785883,52.79938689,595.0988291,2.169378699,0.915758874
1.72E+12,24792,1720289997,52.79938948,-67.40786915,607.930481,-2.574329138,-2.979630232,-16.94661903,3.259643555,1.973748136,,450,-67.40786005,52.79938877,595.0757687,2.169527411,0.915982512
1.72E+12,24892,1720289997,52.79939125,-67.40787035,607.9237671,-2.588588476,-3.194113731,-16.9313755,3.259643555,1.964232742,,450,-67.40786127,52.79939066,595.0527083,2.169676122,0.916206149
1.72E+12,24993,1720289997,52.799393,-67.40787152,607.9192505,-2.907722235,-3.710561752,-16.90166283,3.259765625,1.944192571,,450,-67.4078625,52.79939257,595.0294173,2.169826321,0.916432022
1.72E+12,25092,1720289997,52.7993947,-67.40787262,607.914978,-3.135360718,-4.07407856,-16.84983063,3.259887695,1.935782596,,450,-67.40786371,52.79939444,595.0065875,2.169973545,0.916653423
1.72E+12,25192,1720289997,52.79939644,-67.40787374,607.9102783,-2.828536034,-4.299647808,-16.80392075,3.249938965,1.941582167,,450,-67.40786493,52.79939633,594.9835271,2.170122256,0.91687706
1.72E+12,25292,1720289997,52.79939817,-67.40787484,607.9069824,-2.904907942,-4.439565659,-16.71554184,3.25994873,1.951180675,,450,-67.40786615,52.79939822,594.9604667,2.170270968,0.917100697
1.72E+12,25392,1720289997,52.79939991,-67.40787592,607.9038086,-3.12668395,-4.560658932,-16.61421585,3.260009766,1.964365934,,450,-67.40786737,52.7994001,594.9374063,2.170419679,0.917324334
1.72E+12,25492,1720289997,52.79940166,-67.40787698,607.9021606,-3.089745998,-4.489914417,-16.50192261,3.25994873,1.970240624,,450,-67.4078686,52.79940199,594.9143459,2.170568391,0.917547971
1.72E+12,25592,1720289998,52.7994034,-67.40787804,607.9015503,-3.13365984,-4.420709133,-16.42004776,3.25,1.983486923,,450,-67.40786982,52.79940388,594.8912855,2.170717102,0.917771608
1.72E+12,25692,1720289998,52.79940515,-67.40787905,607.9017334,-3.339427233,-4.534619808,-16.3250885,3.25,1.973322032,,450,-67.40787104,52.79940577,594.8682251,2.170865814,0.917995246
1.72E+12,25792,1720289998,52.7994069,-67.40788006,607.9021606,-3.449062109,-4.713722229,-16.24858284,3.25012207,1.980925833,,450,-67.40787226,52.79940766,594.8451648,2.171014525,0.918218883
1.72E+12,25892,1720289998,52.79940866,-67.40788106,607.9052734,-3.599355698,-4.992920399,-16.17734909,3.260131836,1.99426796,,450,-67.40787348,52.79940955,594.8221044,2.171163237,0.91844252
1.72E+12,25992,1720289998,52.79941043,-67.40788206,607.9077759,-3.84224391,-5.571995258,-16.14902306,3.25994873,2.011719988,,450,-67.4078747,52.79941143,594.799044,2.171311948,0.918666157
1.72E+12,26092,1720289998,52.79941221,-67.40788305,607.9071045,-4.104213715,-5.858735085,-16.12377739,3.25994873,2.041499259,,450,-67.40787592,52.79941332,594.7759836,2.17146066,0.918889794
1.72E+12,26193,1720289998,52.79941401,-67.40788407,607.9055786,-4.222765446,-5.7675457,-16.15917778,3.259887695,2.064259253,,450,-67.40787716,52.79941523,594.7526926,2.171610859,0.919115667
1.72E+12,26293,1720289998,52.7994158,-67.40788508,607.9008179,-3.898614883,-5.881949425,-16.20827293,3.249755859,2.084476494,,450,-67.40787838,52.79941712,594.7296322,2.17175957,0.919339305
1.72E+12,26392,1720289998,52.79941756,-67.4078861,607.8964233,-3.538384914,-5.826101303,-16.28534889,3.259887695,2.115079516,,450,-67.40787958,52.79941899,594.7068024,2.171906794,0.919560705
1.72E+12,26492,1720289998,52.79941938,-67.40788714,607.8929443,-3.573806763,-5.702295303,-16.34048271,3.259887695,2.124974168,,450,-67.40788081,52.79942088,594.683742,2.172055506,0.919784342
1.72E+12,26592,1720289999,52.7994212,-67.40788821,607.8884277,-3.73433733,-5.813205242,-16.40859604,3.249694824,2.126860995,,450,-67.40788203,52.79942277,594.6606816,2.172204217,0.92000798
1.72E+12,26692,1720289999,52.79942303,-67.40788927,607.8809204,-3.669677973,-5.851457596,-16.47837067,3.249816895,2.142832641,,450,-67.40788325,52.79942465,594.6376212,2.172352929,0.920231617
1.72E+12,26792,1720289999,52.79942487,-67.40789035,607.8737793,-3.597100735,-5.770662308,-16.5538044,3.24987793,2.157228824,,450,-67.40788447,52.79942654,594.6145608,2.17250164,0.920455254
1.72E+12,26892,1720289999,52.79942672,-67.40789143,607.8683472,-3.829854012,-5.964866638,-16.58442879,3.24987793,2.159600059,,450,-67.40788569,52.79942843,594.5915004,2.172650352,0.920678891
1.72E+12,26992,1720289999,52.79942858,-67.40789252,607.8631592,-3.871743917,-5.991182804,-16.63885307,3.259643555,2.153625278,,450,-67.40788691,52.79943032,594.56844,2.172799063,0.920902528
1.72E+12,27092,1720289999,52.79943044,-67.4078936,607.8551636,-4.059793949,-5.86883831,-16.65808105,3.259521484,2.171865543,,450,-67.40788813,52.79943221,594.5453796,2.172947775,0.921126165
1.72E+12,27192,1720289999,52.79943231,-67.40789471,607.847229,-4.10716629,-5.960324287,-16.69116211,3.259643555,2.178268251,,450,-67.40788935,52.7994341,594.5223192,2.173096486,0.921349802
1.72E+12,27292,1720289999,52.79943417,-67.4078958,607.8411255,-4.019806385,-6.104794502,-16.73392868,3.249694824,2.180587912,,450,-67.40789057,52.79943598,594.4992588,2.173245198,0.921573439
1.72E+12,27392,1720289999,52.79943604,-67.40789692,607.8366089,-3.911124229,-6.005675793,-16.77404022,3.248474121,2.176308934,,450,-67.4078918,52.79943787,594.4761984,2.173393909,0.921797076
1.72E+12,27496,1720289999,52.79943797,-67.40789807,607.836731,-3.799515247,-5.852767944,-16.79967308,3.248596191,2.199412185,,450,-67.40789307,52.79943984,594.4522156,2.173548569,0.922029659
1.72E+12,27593,1720290000,52.7994398,-67.40789918,607.8373413,-3.66385746,-5.930663586,-16.84112549,3.249206543,2.191856408,,450,-67.40789425,52.79944167,594.429847,2.173692819,0.922246587
1.72E+12,27692,1720290000,52.79944165,-67.40790028,607.8380737,-3.460279942,-5.939778328,-16.88701248,3.249938965,2.211760189,,450,-67.40789546,52.79944354,594.4070172,2.173840044,0.922467988
1.72E+12,27792,1720290000,52.79944356,-67.40790142,607.8397827,-3.41249752,-5.87321043,-16.92528915,3.251647949,2.219640733,,450,-67.40789668,52.79944543,594.3839568,2.173988755,0.922691625
1.72E+12,27892,1720290000,52.79944548,-67.40790257,607.843811,-3.44478488,-5.809492111,-16.95580292,3.25567627,2.210696757,,450,-67.4078979,52.79944731,594.3608965,2.174137467,0.922915262
1.72E+12,27992,1720290000,52.79944741,-67.40790372,607.8475952,-3.214800119,-5.938941002,-16.98115921,3.259460449,2.219373419,,450,-67.40789912,52.7994492,594.3378361,2.174286178,0.923138899
1.72E+12,28092,1720290000,52.79944934,-67.40790488,607.8513794,-3.033895731,-5.942005157,-16.98908234,3.263244629,2.209507754,,450,-67.40790034,52.79945109,594.3147757,2.17443489,0.923362536
1.72E+12,28192,1720290000,52.79945127,-67.40790603,607.8552246,-2.87495327,-5.734507084,-16.98895073,3.267089844,2.227663318,,450,-67.40790156,52.79945298,594.2917153,2.174583601,0.923586173
1.72E+12,28292,1720290000,52.7994532,-67.40790717,607.8571167,-2.962612867,-5.733890057,-16.94729805,3.268981934,2.225375224,,450,-67.40790278,52.79945487,594.2686549,2.174732313,0.92380981
1.72E+12,28392,1720290000,52.79945512,-67.4079083,607.8579102,-2.977860689,-5.815021515,-16.88578796,3.269775391,2.215854833,,450,-67.40790401,52.79945676,594.2455945,2.174881024,0.924033448
1.72E+12,28496,1720290000,52.79945711,-67.40790945,607.855896,-3.168188095,-5.752573013,-16.77692986,3.249816895,2.222515787,,450,-67.40790528,52.79945872,594.2216117,2.175035684,0.92426603
1.72E+12,28592,1720290001,52.79945899,-67.40791055,607.8531494,-3.122579098,-5.798933029,-16.6817379,3.24987793,2.21160764,,450,-67.40790645,52.79946053,594.1994737,2.175178447,0.924480722
1.72E+12,28692,1720290001,52.79946093,-67.40791167,607.8505249,-3.041266203,-5.838572979,-16.59460068,3.24987793,2.221254376,,450,-67.40790767,52.79946242,594.1764133,2.175327159,0.924704359
1.72E+12,28792,1720290001,52.79946286,-67.40791279,607.8495483,-3.095477819,-5.711943626,-16.52362633,3.210144043,2.217373379,,450,-67.40790889,52.79946431,594.1533529,2.17547587,0.924927996
1.72E+12,28893,1720290001,52.79946482,-67.4079139,607.8528442,-3.105184317,-5.604501724,-16.45759964,3.180053711,2.21550823,,450,-67.40791012,52.79946622,594.1300619,2.175626069,0.925153869
1.72E+12,28992,1720290001,52.79946672,-67.40791499,607.8544312,-3.01619792,-5.673200607,-16.38280296,3.229980469,2.223299028,,450,-67.40791133,52.79946809,594.1072321,2.175773293,0.92537527
1.72E+12,29092,1720290001,52.79946868,-67.40791611,607.8539429,-2.930787563,-5.737446308,-16.31436157,3.25,2.210299262,,450,-67.40791255,52.79946998,594.0841717,2.175922005,0.925598907
1.72E+12,29192,1720290001,52.79947063,-67.40791724,607.8538208,-3.024900675,-5.764643669,-16.28130531,3.25,2.215778956,,450,-67.40791377,52.79947186,594.0611113,2.176070716,0.925822544
1.72E+12,29292,1720290001,52.79947258,-67.40791834,607.8532715,-2.935716629,-5.786539555,-16.31116676,3.25,2.232604922,,450,-67.40791499,52.79947375,594.0380509,2.176219428,0.926046182
1.72E+12,29392,1720290001,52.79947453,-67.40791943,607.8530273,-3.078450918,-5.700565815,-16.3359127,3.249938965,2.224989881,,450,-67.40791622,52.79947564,594.0149905,2.176368139,0.926269819
1.72E+12,29492,1720290001,52.79947649,-67.40792054,607.8511353,-3.139531374,-5.862625599,-16.37995529,3.249938965,2.197942249,,450,-67.40791744,52.79947753,593.9919301,2.176516851,0.926493456
1.72E+12,29592,1720290002,52.79947845,-67.40792165,607.8488159,-3.125694513,-5.833813667,-16.42679787,3.249816895,2.217539887,,450,-67.40791866,52.79947942,593.9688697,2.176665562,0.926717093
1.72E+12,29692,1720290002,52.7994804,-67.40792276,607.8463745,-3.154342651,-5.835615158,-16.4695034,3.24987793,2.204753803,,450,-67.40791988,52.79948131,593.9458093,2.176814274,0.92694073
1.72E+12,29792,1720290002,52.79948235,-67.40792387,607.8425903,-3.072170734,-5.975997448,-16.49856377,3.249633789,2.203542593,,450,-67.4079211,52.79948319,593.9227489,2.176962985,0.927164367
1.72E+12,29892,1720290002,52.79948432,-67.40792499,607.8363647,-2.993929148,-5.977976322,-16.52146721,3.249755859,2.233063896,,450,-67.40792232,52.79948508,593.8996885,2.177111697,0.927388004
1.72E+12,29992,1720290002,52.79948628,-67.40792611,607.8321533,-2.934242725,-5.863141537,-16.56575012,3.249816895,2.219857124,,450,-67.40792354,52.79948697,593.8766281,2.177260408,0.927611641
1.72E+12,30092,1720290002,52.79948825,-67.40792722,607.8283081,-2.699539185,-5.990357876,-16.63112831,3.249816895,2.215847284,,450,-67.40792476,52.79948886,593.8535678,2.17740912,0.927835278
1.72E+12,30193,1720290002,52.79949022,-67.40792832,607.8249512,-2.888560057,-5.818707943,-16.69982529,3.24987793,2.226661527,,450,-67.407926,52.79949077,593.8302768,2.177559318,0.928061152
1.72E+12,30292,1720290002,52.79949212,-67.40792938,607.8197021,-3.034814835,-5.595545292,-16.79033852,3.249816895,2.229149631,,450,-67.40792721,52.79949264,593.807447,2.177706543,0.928282553
1.72E+12,30392,1720290002,52.79949407,-67.40793046,607.8141479,-2.954645157,-5.607613087,-16.84873962,3.24987793,2.228510247,,450,-67.40792843,52.79949452,593.7843866,2.177855254,0.92850619
1.72E+12,30492,1720290002,52.79949602,-67.40793152,607.8083496,-2.958274126,-5.379258156,-16.89714241,3.24987793,2.207239879,,450,-67.40792965,52.79949641,593.7613262,2.178003966,0.928729827
1.72E+12,30592,1720290003,52.79949795,-67.40793258,607.8041992,-2.847489595,-5.189512253,-16.92491722,3.249938965,2.212968847,,450,-67.40793087,52.7994983,593.7382658,2.178152677,0.928953464
1.72E+12,30692,1720290003,52.7994999,-67.40793363,607.8040161,-2.833559275,-5.550038338,-16.90697098,3.25,2.189955669,,450,-67.40793209,52.79950019,593.7152054,2.178301389,0.929177101
