Time,Date,System Name,Longitude,Latitude,FP Height,Gnss Correction,H. Speed,Quality,systemTimeMs,gnssTime,latitudeDeg,longitudeDeg,altitude,rollDeg,pitchDeg,yawDeg,agl,hSpeed
1720289719810,2024-07-06,450,-67.40757959414046,52.79854416660704,594.8230342254639,5.43900000000001,2.4908561778679346,0.8988915285493579,1720289255300.0,1720289262.933913,52.804394421492326,-67.42078064604274,605.750244140625,1.811943531036377,0.4585626721382141,145.6649169921875,0.0,0.0005182514771283
1720289720308,2024-07-06,200,-67.40759661520815,52.79854401216937,594.9839621068396,5.43900000000001,2.3144521076081657,0.948635862905428,1720289256076.9827,1720289263.7108848,52.80439442075236,-67.42078064679836,605.7502480909405,1.811466112773638,0.45827172937019367,145.66640404950735,0.0,0.0005195927444523553
1720289720808,2024-07-06,450,-67.40761303546812,52.79854428592421,594.791178756714,5.43900000000001,2.281034558758186,0.9581387981076686,1720289256853.9653,1720289264.4878569,52.804394420012386,-67.420780647554,605.750252041256,1.8109886945108988,0.4579807866021733,145.66789110682723,0.0,0.0005209340117764105
1720289721310,2024-07-06,200,-67.40762890144582,52.798544147236655,594.9200047836304,5.43900000000001,2.299191353830166,0.9996771241332596,1720289257630.948,1720289265.2648287,52.80439441927242,-67.42078064830962,605.7502559915715,1.8105112762481599,0.45768984383415284,145.66937816414708,0.0,0.0005222752791004657
1720289721810,2024-07-06,450,-67.4076439330697,52.798543284197045,594.7547175750733,5.43900000000001,2.2561103540877507,0.9093314093692542,1720289258407.9307,1720289266.0418007,52.804394418532446,-67.42078064906524,605.750259941887,1.810033857985421,0.4573989010661324,145.67086522146693,0.0,0.000523616546424521
1720289722308,2024-07-06,200,-67.40765892480422,52.79854202655831,594.2922993621826,5.43900000000001,2.318500976078586,0.9339145965049516,1720289259184.9133,1720289266.8187726,52.80439441779248,-67.42078064982087,605.7502638922025,1.8095564397226818,0.457107958298112,145.67235227878678,0.0,0.0005249578137485763
1720289722810,2024-07-06,450,-67.407674310804,52.798540155885824,594.6986708984375,5.43900000000001,2.386731278494373,0.9244522376308908,1720289259961.896,1720289267.5957446,52.804394417052514,-67.42078065057649,605.7502678425179,1.8090790214599428,0.4568170155300916,145.67383933610665,0.0,0.0005262990810726315
1720289723309,2024-07-06,200,-67.40768963769523,52.79853814507029,594.201785853068,5.43900000000001,2.322478060666421,0.9368040259159108,1720289260738.8787,1720289268.3727164,52.80439441631254,-67.42078065133211,605.7502717928335,1.8086016031972039,0.4565260727620712,145.6753263934265,0.0,0.0005276403483966867
1720289723809,2024-07-06,450,-67.40770494871873,52.79853648268363,594.1363263854981,5.43900000000001,2.183112264587186,0.9911609506615976,1720289261515.8613,1720289269.1496885,52.804394415572574,-67.42078065208774,605.7502757431489,1.808124184934465,0.45623512999405075,145.67681345074635,0.0,0.000528981615720742
1720289724309,2024-07-06,200,-67.40772038931517,52.79853500189278,594.1698081932068,5.43900000000001,2.2855863273018064,0.9701996980091934,1720289262292.8442,1720289269.9266603,52.80439441483261,-67.42078065284336,605.7502796934644,1.8076467666717257,0.4559441872260303,145.6783005080662,0.0,0.0005303228830447972
1720289724809,2024-07-06,450,-67.40773633553484,52.79853365061151,593.9132246946202,5.43900000000001,2.3168461421469937,0.9993360130809223,1720289263069.827,1720289270.7036324,52.804394414092634,-67.42078065359898,605.7502836437799,1.8071693484089868,0.4556532444580099,145.67978756538608,0.0,0.0005316641503688524
1720289725309,2024-07-06,200,-67.40775257598611,52.79853284850032,593.9021895751954,5.43900000000001,2.2860000709408066,0.946433733431412,1720289263846.8096,1720289271.4806042,52.80439441335267,-67.42078065435462,605.7502875940954,1.8066919301462478,0.4553623016899895,145.68127462270593,0.0,0.0005330054176929077
1720289725810,2024-07-06,450,-67.4077692101805,52.79853205010753,593.7065492973328,5.43900000000001,2.27018786468025,0.999390841240264,1720289264623.7922,1720289272.2575762,52.804394412612695,-67.42078065511024,605.7502915444109,1.8062145118835087,0.45507135892196904,145.68276168002578,0.0,0.000534346685016963
1720289726309,2024-07-06,200,-67.40778600865886,52.79853124953574,593.5950704536439,5.43900000000001,2.306737149293812,0.9592602612013464,1720289265400.775,1720289273.034548,52.80439441187273,-67.42078065586585,605.7502954947264,1.8057370936207697,0.45478041615394865,145.68424873734563,0.0,0.0005356879523410182
1720289726809,2024-07-06,450,-67.40780306560069,52.79853047393984,593.153803630829,5.43900000000001,2.3072658821782337,0.941578306456752,1720289266177.7576,1720289273.81152,52.80439441113276,-67.42078065662149,605.7502994450418,1.8052596753580308,0.4544894733859282,145.6857357946655,0.0,0.0005370292196650734
1720289727311,2024-07-06,200,-67.40781979314454,52.79852951777415,592.9852602309795,5.43900000000001,2.249871747323502,0.9901184196155656,1720289266954.7402,1720289274.588492,52.80439441039279,-67.42078065737711,605.7503033953574,1.8047822570952916,0.45419853061790777,145.68722285198535,0.0,0.0005383704869891286
1720289727809,2024-07-06,450,-67.407835955811,52.7985285298467,592.787790599823,5.43900000000001,2.17195618860736,0.9311039068326612,1720289267731.723,1720289275.365464,52.80439440965282,-67.42078065813273,605.7503073456728,1.8043048388325527,0.4539075878498874,145.6887099093052,0.0,0.0005397117543131839
1720289728308,2024-07-06,200,-67.4078517965682,52.79852776519464,592.7483635673523,5.43900000000001,2.164927718906412,0.9642923046079488,1720289268508.7056,1720289276.1424358,52.80439440891285,-67.42078065888836,605.7503112959884,1.8038274205698137,0.45361664508186694,145.69019696662505,0.0,0.0005410530216372392
1720289728809,2024-07-06,450,-67.40786765294227,52.79852750007614,592.7243218574525,5.43900000000001,2.1616844520281084,0.9929797053512066,1720289269285.6882,1720289276.9194076,52.80439440817288,-67.42078065964398,605.7503152463038,1.8033500023070748,0.4533257023138465,145.69168402394493,0.0,0.0005423942889612944
1720289729308,2024-07-06,200,-67.40788383901565,52.79852762177725,593.1675313720704,5.43900000000001,2.3272683108195915,0.8426804978563519,1720289270062.671,1720289277.6963797,52.804394407432916,-67.4207806603996,605.7503191966193,1.8028725840443356,0.4530347595458261,145.69317108126478,0.0,0.0005437355562853497
1720289729809,2024-07-06,450,-67.40790127122516,52.79852730792779,592.7098711738587,5.43900000000001,2.344639646361105,0.9841512639269212,1720289270839.6536,1720289278.4733515,52.80439440669294,-67.42078066115523,605.7503231469349,1.8023951657815966,0.4527438167778057,145.69465813858463,0.0,0.0005450768236094049
1720289730308,2024-07-06,200,-67.40791788869781,52.79852683548832,592.5318976552944,5.43900000000001,2.048796221440304,0.9982338654442446,1720289271616.6362,1720289279.2503235,52.804394405952976,-67.42078066191085,605.7503270972503,1.8019177475188577,0.4524528740097853,145.69614519590448,0.0,0.0005464180909334601
1720289730810,2024-07-06,450,-67.40793317084066,52.79852631001323,592.2271355018617,5.43900000000001,1.877932511442656,0.9446309719134556,1720289272393.619,1720289280.0272954,52.80439440521301,-67.42078066266647,605.7503310475659,1.8014403292561185,0.45216193124176485,145.69763225322436,0.0,0.0005477593582575153
1720289731309,2024-07-06,200,-67.40794743533277,52.79852546621163,592.2618446884156,5.43900000000001,1.8291688091726293,0.9102035837461172,1720289273170.6016,1720289280.8042674,52.80439440447304,-67.42078066342211,605.7503349978813,1.8009629109933796,0.4518709884737444,145.6991193105442,0.0,0.0005491006255815706
1720289731809,2024-07-06,450,-67.40796180191516,52.798524246840486,591.7218967971802,5.43900000000001,2.091283133321855,0.9740526301619596,1720289273947.5842,1720289281.5812392,52.80439440373307,-67.42078066417773,605.7503389481968,1.8004854927306406,0.451580045705724,145.70060636786405,0.0,0.0005504418929056259
1720289732314,2024-07-06,200,-67.40797762278005,52.79852287633629,591.7421452982378,5.43900000000001,2.2002229816713257,0.9561557786180817,1720289274724.567,1720289282.3582113,52.8043944029931,-67.42078066493335,605.7503428985123,1.8000080744679015,0.4512891029377036,145.7020934251839,0.0,0.0005517831602296811
1720289732809,2024-07-06,450,-67.40799374669622,52.7985213312171,592.0815083656311,5.43900000000001,2.195817463756557,0.8748373415369747,1720289275501.5496,1720289283.135183,52.80439440225313,-67.42078066568898,605.7503468488278,1.7995306562051625,0.45099816016968314,145.70358048250378,0.0,0.0005531244275537363
1720289733309,2024-07-06,200,-67.40800932617113,52.79851904235411,592.3050716377412,5.43900000000001,2.13674840754636,0.9930331321361572,1720289276278.5325,1720289283.9121552,52.804394401513164,-67.4207806664446,605.7503507991432,1.7990532379424236,0.45070721740166275,145.70506753982363,0.0,0.0005544656948777916
1720289733809,2024-07-06,450,-67.40802480125836,52.798517051886485,592.1536409339905,5.43900000000001,2.0856276600509145,0.9979416692183074,1720289277055.5151,1720289284.689127,52.80439440077319,-67.42078066720022,605.7503547494588,1.7985758196796846,0.4504162746336423,145.70655459714348,0.0,0.0005558069622018468
1720289734293,2024-07-06,200,-67.40803993656904,52.79851598815844,591.1730777602243,5.43900000000001,2.1383990324905118,0.959951180926851,1720289277832.4978,1720289285.466099,52.804394400033225,-67.42078066795585,605.7503586997742,1.7980984014169454,0.45012533186562187,145.70804165446336,0.0,0.000557148229525902
1720289734809,2024-07-06,450,-67.40805648876163,52.79851548684732,590.7822748718262,5.43900000000001,2.121866509099441,0.9942730947785068,1720289278609.4805,1720289286.2430708,52.80439439929325,-67.42078066871147,605.7503626500898,1.7976209831542065,0.4498343890976015,145.7095287117832,0.0,0.0005584894968499572
1720289735310,2024-07-06,200,-67.40807227296862,52.798515161697,591.0481700286865,5.43900000000001,2.062527058792025,0.9172770019668312,1720289279386.4631,1720289287.020043,52.804394398553285,-67.42078066946709,605.7503666004052,1.7971435648914675,0.44954344632958104,145.71101576910306,0.0,0.0005598307641740126
1720289735793,2024-07-06,450,-67.40808720870517,52.79851467272752,590.8957961348716,5.43900000000001,2.094956831024925,0.9426307807888724,1720289280163.4458,1720289287.7970147,52.80439439781332,-67.42078067022273,605.7503705507207,1.7966661466287284,0.44925250356156066,145.7125028264229,0.0,0.0005611720314980678
1720289736309,2024-07-06,200,-67.40810332119264,52.798513561775074,590.8502897796631,5.43900000000001,2.12725521118088,0.9885382964647572,1720289280940.4285,1720289288.5739865,52.804394397073345,-67.42078067097835,605.7503745010362,1.7961887283659894,0.4489615607935402,145.71398988374278,0.0,0.000562513298822123
1720289736810,2024-07-06,450,-67.40811828488053,52.79851206042996,590.5729304656983,5.43900000000001,1.9929832574117616,0.9904507107431058,1720289281717.4111,1720289289.3509586,52.80439439633338,-67.42078067173397,605.7503784513517,1.7957113101032505,0.4486706180255198,145.71547694106263,0.0,0.0005638545661461782
1720289737293,2024-07-06,200,-67.40813259040318,52.79851054082672,590.6542617568971,5.43900000000001,2.063978389282322,0.7471539273132226,1720289282494.3938,1720289290.1279304,52.80439439559341,-67.4207806724896,605.7503824016671,1.7952338918405113,0.4483796752574994,145.71696399838248,0.0,0.0005651958334702335
1720289737810,2024-07-06,450,-67.40814806935862,52.79850920978821,590.5352353439331,5.43900000000001,2.021917420229253,0.998915767260772,1720289283271.3765,1720289290.9049025,52.80439439485344,-67.42078067324522,605.7503863519827,1.7947564735777723,0.44808873248947895,145.71845105570233,0.0,0.0005665371007942887
1720289738308,2024-07-06,200,-67.4081632077382,52.79850857037484,590.9392666397096,5.43900000000001,2.0858925290827504,0.9320353872103684,1720289284048.3591,1720289291.6818743,52.80439439411347,-67.42078067400084,605.7503903022981,1.7942790553150334,0.4477977897214585,145.7199381130222,0.0,0.0005678783681183439
1720289738809,2024-07-06,450,-67.40817895295079,52.79850833280514,591.0461789093018,5.43900000000001,2.1843838214959868,0.994783482002789,1720289284825.3418,1720289292.4588463,52.8043943933735,-67.42078067475647,605.7503942526137,1.7938016370522942,0.4475068469534381,145.72142517034206,0.0,0.0005692196354423993
1720289739310,2024-07-06,200,-67.40819569721307,52.798508223564255,590.928809867859,5.43900000000001,2.294809609396743,0.984047431655826,1720289285602.3245,1720289293.2358181,52.80439439263353,-67.42078067551209,605.7503982029292,1.7933242187895553,0.4472159041854177,145.7229122276619,0.0,0.0005705609027664545
1720289739809,2024-07-06,450,-67.40821343583718,52.79850835600037,590.9922647247315,5.43900000000001,2.448016717443389,0.9670392188218666,1720289286379.3071,1720289294.0127902,52.80439439189357,-67.42078067626771,605.7504021532446,1.7928468005268163,0.44692496141739724,145.72439928498176,0.0,0.0005719021700905097
1720289740310,2024-07-06,200,-67.40823239299402,52.79850858627175,590.0587922439576,5.43900000000001,2.539839041703024,0.9891735899875844,1720289287156.2898,1720289294.789762,52.80439439115359,-67.42078067702334,605.7504061035602,1.7923693822640774,0.44663401864937685,145.72588634230164,0.0,0.0005732434374145649
1720289740809,2024-07-06,450,-67.40825145662329,52.79850912560336,589.75748021698,5.43900000000001,2.4323172141055003,0.8781279140482157,1720289287933.2725,1720289295.566734,52.80439439041363,-67.42078067777896,605.7504100538756,1.7918919640013382,0.4463430758813564,145.72737339962148,0.0,0.0005745847047386202
1720289741310,2024-07-06,200,-67.40826975612387,52.79850958272176,589.848539100647,5.43900000000001,2.3200194302858645,0.9528991421032096,1720289288710.2551,1720289296.343706,52.804394389673654,-67.42078067853458,605.7504140041912,1.7914145457385993,0.446052133113336,145.72886045694133,0.0,0.0005759259720626754
1720289741810,2024-07-06,450,-67.40828738104865,52.79850957999296,589.3892304763795,5.43900000000001,2.249448327263185,0.96945912196396,1720289289487.238,1720289297.120678,52.80439438893369,-67.42078067929022,605.7504179545066,1.7909371274758603,0.4457611903453156,145.73034751426118,0.0,0.0005772672393867307
1720289742310,2024-07-06,200,-67.40830466222212,52.79850928560433,590.0988772354126,5.43900000000001,2.269487365956096,0.9780647874746392,1720289290264.2207,1720289297.8976498,52.80439438819372,-67.42078068004584,605.7504219048221,1.7904597092131211,0.44547024757729514,145.73183457158106,0.0,0.000578608506710786
1720289742809,2024-07-06,450,-67.4083216010856,52.79850851686045,589.4059480056764,5.43900000000001,2.247699516790852,0.977848835034136,1720289291041.2034,1720289298.6746218,52.80439438745375,-67.42078068080146,605.7504258551376,1.7899822909503822,0.44517930480927476,145.7333216289009,0.0,0.0005799497740348412
1720289743310,2024-07-06,200,-67.4083383057644,52.79850748827288,589.7786826477052,5.43900000000001,2.1904500493243058,0.9403161025118236,1720289291818.186,1720289299.4515936,52.80439438671378,-67.42078068155709,605.7504298054531,1.7895048726876432,0.4448883620412543,145.73480868622076,0.0,0.0005812910413588964
1720289743809,2024-07-06,450,-67.4083547409778,52.7985064468497,589.5791672286988,5.43900000000001,2.165410597532258,0.992013231567916,1720289292595.1687,1720289300.2285657,52.804394385973815,-67.42078068231271,605.7504337557685,1.789027454424904,0.4445974192732339,145.7362957435406,0.0,0.0005826323086829516
1720289744311,2024-07-06,200,-67.40837113613384,52.79850551764454,589.6755118713379,5.43900000000001,2.203605364313282,0.953798019288252,1720289293372.1514,1720289301.0055375,52.80439438523384,-67.42078068306833,605.7504377060841,1.7885500361621651,0.4443064765052135,145.7377828008605,0.0,0.0005839735760070068
1720289744810,2024-07-06,450,-67.4083875906957,52.79850476394824,589.2982341156007,5.43900000000001,2.19861239884648,0.94819118958575,1720289294149.134,1720289301.7825093,52.804394384493875,-67.42078068382396,605.7504416563995,1.7880726178994262,0.44401553373719305,145.73926985818034,0.0,0.0005853148433310621
1720289745309,2024-07-06,200,-67.4084038112323,52.798504217759366,589.4062298736573,5.43900000000001,2.1427303525499948,0.955655329776871,1720289294926.1167,1720289302.5594814,52.8043943837539,-67.42078068457958,605.7504456067151,1.7875951996366872,0.4437245909691726,145.74075691550019,0.0,0.0005866561106551174
1720289745810,2024-07-06,450,-67.40841982996578,52.79850404247375,589.0486502990723,5.43900000000001,2.096147136670984,0.9367995654091764,1720289295703.0994,1720289303.3364532,52.804394383013936,-67.4207806853352,605.7504495570305,1.787117781373948,0.4434336482011522,145.74224397282006,0.0,0.0005879973779791726
1720289746309,2024-07-06,200,-67.40843558629,52.79850424929218,589.3827530392184,5.43900000000001,2.0706454751714856,0.937537515583422,1720289296480.082,1720289304.1134253,52.80439438227397,-67.42078068609084,605.750453507346,1.786640363111209,0.4431427054331318,145.7437310301399,0.0,0.0005893386453032279
1720289746810,2024-07-06,450,-67.40845133166637,52.798504519125466,589.6972569808961,5.43900000000001,2.1342536149800497,0.9563904212791886,1720289297257.0647,1720289304.890397,52.804394381533996,-67.42078068684646,605.7504574576615,1.7861629448484702,0.4428517626651114,145.74521808745976,0.0,0.0005906799126272831
1720289747310,2024-07-06,200,-67.40846759867486,52.79850502646414,589.5803960016424,5.43900000000001,2.1652234837781177,0.9677262685010076,1720289298034.0474,1720289305.6673691,52.80439438079403,-67.42078068760208,605.750461407977,1.785685526585731,0.44256081989709095,145.7467051447796,0.0,0.0005920211799513383
1720289747810,2024-07-06,450,-67.40848411417603,52.79850546043935,589.7323899265635,5.43900000000001,2.216393482459389,0.9870817876297668,1720289298811.03,1720289306.444341,52.80439438005406,-67.42078068835771,605.7504653582926,1.785208108322992,0.4422698771290705,145.7481922020995,0.0,0.0005933624472753935
1720289748310,2024-07-06,200,-67.40850124426379,52.79850550398636,591.9256893501282,5.43900000000001,2.299247986063356,0.9713609408447372,1720289299588.0127,1720289307.221313,52.80439437931409,-67.42078068911333,605.750469308608,1.784730690060253,0.4419789343610501,145.74967925941934,0.0,0.0005947037145994489
1720289748809,2024-07-06,450,-67.40851902442985,52.79850517640748,592.5092295417786,5.43900000000001,2.360493583274339,0.954279321182459,1720289300364.9954,1720289307.9982848,52.80439437857412,-67.42078068986895,605.7504732589235,1.784253271797514,0.4416879915930297,145.7511663167392,0.0,0.0005960449819235041
1720289749309,2024-07-06,200,-67.40853715838105,52.798504705278525,590.3337548599243,5.43900000000001,2.3579130503792847,0.8935089890360969,1720289301141.978,1720289308.7752569,52.80439437783415,-67.42078069062458,605.750477209239,1.783775853534775,0.44139704882500924,145.75265337405904,0.0,0.0005973862492475593
1720289749809,2024-07-06,450,-67.4085554408544,52.7985040523136,588.8293255386353,5.43900000000001,2.3034082495166115,0.8252737773586357,1720289301918.9607,1720289309.5522287,52.804394377094184,-67.4207806913802,605.7504811595545,1.783298435272036,0.44110610605698886,145.75414043137891,0.0,0.0005987275165716145
1720289750310,2024-07-06,200,-67.40857336671255,52.798503173788376,588.6159568421771,5.43900000000001,2.2229409134646034,0.9691994969622876,1720289302695.9436,1720289310.3292007,52.80439437635422,-67.42078069213582,605.7504851098699,1.7828210170092968,0.4408151632889684,145.75562748869876,0.0,0.0006000687838956698
1720289750809,2024-07-06,450,-67.40859075185288,52.79850234985307,588.1337429962159,5.43900000000001,2.164477517299772,0.9696956008155772,1720289303472.9263,1720289311.1061726,52.804394375614244,-67.42078069289146,605.7504890601855,1.782343598746558,0.440524220520948,145.7571145460186,0.0,0.000601410051219725
1720289751311,2024-07-06,200,-67.40860768320523,52.79850163837176,588.7820077902285,5.43900000000001,2.0828056580147463,0.961243755239925,1720289304249.909,1720289311.8831446,52.80439437487428,-67.42078069364707,605.7504930105009,1.781866180483819,0.4402332777529276,145.75860160333846,0.0,0.0006027513185437802
1720289751810,2024-07-06,450,-67.40862363878682,52.798501117959454,588.0686404571534,5.43900000000001,1.9965376507805508,0.9875066709230405,1720289305026.8916,1720289312.6601164,52.804394374134304,-67.4207806944027,605.7504969608165,1.78138876222108,0.43994233498490715,145.76008866065834,0.0,0.0006040925858678354
1720289752309,2024-07-06,200,-67.40863923564136,52.79850072660902,588.1510633621216,5.43900000000001,2.0596135310709025,0.9437602882676054,1720289305803.8743,1720289313.4370885,52.80439437339434,-67.42078069515833,605.7505009111319,1.7809113439583408,0.43965139221688676,145.7615757179782,0.0,0.0006054338531918908
1720289752813,2024-07-06,450,-67.40865537172881,52.79850063218848,587.6100021561132,5.43900000000001,2.0847512632475595,0.9668093638895788,1720289306580.857,1720289314.2140603,52.80439437265437,-67.42078069591395,605.7505048614474,1.7804339256956019,0.4393604494488663,145.76306277529804,0.0,0.000606775120515946
1720289753310,2024-07-06,200,-67.40867089914687,52.79850061056902,588.6250451431275,5.43900000000001,2.0229205839656323,0.9802693078555106,1720289307357.8396,1720289314.9910321,52.8043943719144,-67.42078069666957,605.7505088117629,1.779956507432863,0.4390695066808459,145.7645498326179,0.0,0.0006081163878400012
1720289753809,2024-07-06,450,-67.40868711316092,52.79850052146597,587.569083114624,5.43900000000001,2.198103549115598,0.953645095303492,1720289308134.8223,1720289315.7680042,52.80439437117443,-67.4207806974252,605.7505127620784,1.7794790891701238,0.4387785639128255,145.76603688993777,0.0,0.0006094576551640565
1720289754313,2024-07-06,200,-67.40870399546066,52.798500379745,589.4438357847611,5.43900000000001,2.190743357565791,0.809651888942725,1720289308911.805,1720289316.544976,52.804394370434466,-67.42078069818082,605.7505167123938,1.7790016709073848,0.43848762114480505,145.76752394725762,0.0,0.0006107989224881117
1720289754810,2024-07-06,450,-67.40872062858709,52.79849985329079,587.6480052337647,5.43900000000001,2.19739748855511,0.9963896215518862,1720289309688.7876,1720289317.321948,52.80439436969449,-67.42078069893644,605.7505206627094,1.7785242526446459,0.4381966783767846,145.76901100457746,0.0,0.0006121401898121669
1720289755309,2024-07-06,200,-67.40873724055623,52.79849894885988,588.1078915939332,5.43900000000001,2.101135025202231,0.9945167530626176,1720289310465.7703,1720289318.0989199,52.804394368954526,-67.42078069969207,605.7505246130248,1.7780468343819067,0.4379057356087642,145.7704980618973,0.0,0.0006134814571362222
1720289755809,2024-07-06,450,-67.40875315302854,52.798497914383525,586.5376312705147,5.43900000000001,2.030582032098027,0.9577853600371172,1720289311242.753,1720289318.875892,52.80439436821455,-67.4207807004477,605.7505285633404,1.7775694161191677,0.4376147928407438,145.7719851192172,0.0,0.0006148227244602775
1720289756309,2024-07-06,200,-67.40876856963726,52.798497141141056,586.9639595947266,5.43900000000001,1.9078218205061304,0.9338671924122124,1720289312019.7356,1720289319.6528637,52.804394367474586,-67.42078070120331,605.7505325136558,1.7770919978564288,0.43732385007272334,145.77347217653704,0.0,0.0006161639917843327
1720289756810,2024-07-06,450,-67.40878302103636,52.79849665658105,586.8218495712281,5.43900000000001,1.7984903033045292,0.992396636344798,1720289312796.7183,1720289320.4298358,52.80439436673462,-67.42078070195895,605.7505364639713,1.7766145795936898,0.43703290730470296,145.7749592338569,0.0,0.0006175052591083879
1720289757310,2024-07-06,200,-67.40879715696336,52.79849619682797,586.7174340591431,5.43900000000001,1.8876490459539423,0.9422839907445252,1720289313573.701,1720289321.2068076,52.804394365994646,-67.42078070271457,605.7505404142869,1.7761371613309507,0.4367419645366825,145.77644629117674,0.0,0.0006188465264324431
1720289757811,2024-07-06,450,-67.40881175518558,52.79849568805997,586.1476671571828,5.43900000000001,1.9510944754224115,0.8858504806061926,1720289314350.6836,1720289321.9837797,52.80439436525468,-67.42078070347019,605.7505443646023,1.7756597430682117,0.4364510217686621,145.77793334849662,0.0,0.0006201877937564984
1720289758309,2024-07-06,200,-67.40882646260224,52.79849514798355,586.5521060714723,5.43900000000001,1.9809419800597072,0.9631213472694772,1720289315127.6663,1720289322.7607515,52.80439436451471,-67.42078070422582,605.7505483149179,1.7751823248054728,0.4361600790006417,145.77942040581647,0.0,0.0006215290610805536
1720289758810,2024-07-06,450,-67.40884149115656,52.79849462630386,586.2874684677124,5.43900000000001,2.0928417221933517,0.9549355258053348,1720289315904.649,1720289323.5377235,52.80439436377474,-67.42078070498144,605.7505522652333,1.7747049065427336,0.43586913623262125,145.78090746313632,0.0,0.0006228703284046089
1720289759309,2024-07-06,200,-67.40885759838055,52.79849421427435,586.286355796814,5.43900000000001,2.240726846545941,0.9811039607819744,1720289316681.6318,1720289324.3146954,52.804394363034774,-67.42078070573706,605.7505562155488,1.7742274882799947,0.43557819346460086,145.7823945204562,0.0,0.0006242115957286642
1720289759809,2024-07-06,450,-67.40887429330485,52.7984940115485,586.2381923122985,5.43900000000001,2.2617311860124145,0.9976493309271066,1720289317458.6145,1720289325.0916674,52.8043943622948,-67.42078070649269,605.7505601658643,1.7737500700172557,0.4352872506965804,145.78388157777604,0.0,0.0006255528630527194
1720289760311,2024-07-06,200,-67.4088918121514,52.79849386425108,586.4164014587403,5.43900000000001,2.421689697834428,0.9857782550680788,1720289318235.5972,1720289325.8686392,52.804394361554834,-67.42078070724831,605.7505641161798,1.7732726517545165,0.43499630792856,145.7853686350959,0.0,0.0006268941303767746
1720289760810,2024-07-06,450,-67.40891023763004,52.798493790616334,586.2447804100731,5.43900000000001,2.4818925433348538,0.9948570862035226,1720289319012.5798,1720289326.645611,52.80439436081487,-67.42078070800393,605.7505680664952,1.7727952334917776,0.4347053651605396,145.78685569241574,0.0,0.0006282353977008298
1720289761309,2024-07-06,200,-67.40892857075346,52.798493722095934,586.108933769226,5.43900000000001,2.3683407986710217,0.9000351304338349,1720289319789.5625,1720289327.422583,52.804394360074895,-67.42078070875957,605.7505720168108,1.7723178152290386,0.43441442239251915,145.78834274973562,0.0,0.0006295766650248851
1720289761809,2024-07-06,450,-67.40894647827895,52.79849345827149,586.042746749878,5.43900000000001,2.317661477346792,0.985178805073564,1720289320566.5452,1720289328.199555,52.80439435933493,-67.42078070951518,605.7505759671262,1.7718403969662995,0.4341234796244987,145.78982980705547,0.0,0.0006309179323489404
1720289762309,2024-07-06,200,-67.40896405328051,52.79849350168632,585.9276300254294,5.43900000000001,2.170899231061352,0.9980023830197906,1720289321343.5278,1720289328.976527,52.804394358594955,-67.4207807102708,605.7505799174418,1.7713629787035605,0.4338325368564783,145.79131686437532,0.0,0.0006322591996729956
1720289762810,2024-07-06,450,-67.40898001368225,52.79849349163575,585.5138507232667,5.43900000000001,2.0017169192837168,0.8760266220736166,1720289322120.5105,1720289329.7534988,52.80439435785499,-67.42078071102644,605.7505838677572,1.7708855604408216,0.4335415940884579,145.79280392169517,0.0,0.0006336004669970508
1720289763310,2024-07-06,200,-67.40899589933983,52.79849442362775,585.6661624298097,5.43900000000001,2.1654010717718624,0.8840069479972369,1720289322897.4932,1720289330.5304708,52.80439435711502,-67.42078071178206,605.7505878180727,1.7704081421780826,0.43325065132043744,145.79429097901505,0.0,0.0006349417343211061
1720289763810,2024-07-06,450,-67.40901146968493,52.798496394325866,585.2536657069813,5.43900000000001,2.0402741452440787,0.9653125484844732,1720289323674.4758,1720289331.3074427,52.80439435637505,-67.42078071253768,605.7505917683882,1.7699307239153435,0.43295970855241706,145.7957780363349,0.0,0.0006362830016451613
1720289764312,2024-07-06,200,-67.40902590365057,52.79849753617602,585.7352950820923,5.43900000000001,1.836224264028065,0.9794152055266496,1720289324451.4585,1720289332.0844147,52.80439435563508,-67.42078071329331,605.7505957187037,1.7694533056526045,0.4326687657843966,145.79726509365474,0.0,0.0006376242689692165
1720289764812,2024-07-06,450,-67.40903972949583,52.798497688990025,585.2395826153225,5.43900000000001,1.818375479208328,0.9654234897826742,1720289325228.4412,1720289332.8613865,52.80439435489511,-67.42078071404893,605.7505996690192,1.7689758873898656,0.4323778230163762,145.7987521509746,0.0,0.0006389655362932717
1720289765310,2024-07-06,200,-67.40905361674245,52.79849678061817,585.7220167243265,5.43900000000001,2.0379873443992604,0.82304748983716,1720289326005.4238,1720289333.6383586,52.80439435415514,-67.42078071480455,605.7506036193347,1.7684984691271264,0.4320868802483558,145.80023920829447,0.0,0.000640306803617327
1720289765811,2024-07-06,450,-67.40906912786909,52.79849548515312,585.2418058547973,5.43900000000001,2.176876684491856,0.8550873306773776,1720289326782.4065,1720289334.4153304,52.80439435341518,-67.42078071556018,605.7506075696501,1.7680210508643874,0.43179593748033535,145.80172626561432,0.0,0.0006416480709413823
1720289766310,2024-07-06,200,-67.40908539918853,52.79849399019946,585.0069781646729,5.43900000000001,2.2835137863266284,0.8823221446955427,1720289327559.3892,1720289335.1923025,52.8043943526752,-67.4207807163158,605.7506115199657,1.7675436326016485,0.43150499471231496,145.80321332293417,0.0,0.0006429893382654375
1720289766810,2024-07-06,450,-67.40910254634788,52.79849245366376,584.991315208435,5.43900000000001,2.31565575418321,0.8892091770720923,1720289328336.3718,1720289335.9692743,52.80439435193524,-67.42078071707142,605.7506154702812,1.7670662143389093,0.4312140519442945,145.80470038025402,0.0,0.0006443306055894928
1720289767309,2024-07-06,200,-67.40912010757589,52.79849103028358,585.2850836334229,5.43900000000001,2.3451009098636844,0.9535575449045746,1720289329113.3545,1720289336.7462463,52.80439435119527,-67.42078071782706,605.7506194205966,1.7665887960761704,0.4309231091762741,145.8061874375739,0.0,0.000645671872913548
1720289767812,2024-07-06,450,-67.40913809331367,52.79848976576115,584.9865849838257,5.43900000000001,2.316914029528796,0.927037094849,1720289329890.3374,1720289337.5232182,52.8043943504553,-67.42078071858268,605.7506233709122,1.7661113778134314,0.4306321664082537,145.80767449489375,0.0,0.0006470131402376032
1720289768310,2024-07-06,200,-67.4091558963471,52.7984887159506,586.7648846969605,5.43900000000001,2.291003220737084,0.822464443880565,1720289330667.32,1720289338.3001902,52.80439434971533,-67.4207807193383,605.7506273212276,1.7656339595506925,0.43034122364023325,145.8091615522136,0.0,0.0006483544075616585
1720289768809,2024-07-06,450,-67.40917343536495,52.79848792945887,585.0410533676148,5.43900000000001,2.2339391544553084,0.9423851998303524,1720289331444.3027,1720289339.077162,52.80439434897536,-67.42078072009393,605.7506312715432,1.7651565412879533,0.4300502808722128,145.81064860953344,0.0,0.0006496956748857138
1720289769311,2024-07-06,200,-67.40919063398843,52.79848714193632,587.2473170242309,5.43900000000001,2.2217667391953544,0.9938539131467872,1720289332221.2854,1720289339.8541338,52.80439434823539,-67.42078072084955,605.7506352218586,1.7646791230252143,0.4297593381041924,145.81213566685332,0.0,0.000651036942209769
1720289769812,2024-07-06,450,-67.4092078396275,52.798486403081725,585.0819084701538,5.43900000000001,2.207147936846986,0.9473536998366644,1720289332998.268,1720289340.631106,52.804394347495425,-67.42078072160517,605.7506391721741,1.7642017047624754,0.429468395336172,145.81362272417317,0.0,0.0006523782095338242
1720289770309,2024-07-06,200,-67.40922446094625,52.79848577888819,585.1285998442245,5.43900000000001,2.16440088886318,0.99881834322746,1720289333775.2507,1720289341.4080777,52.80439434675545,-67.4207807223608,605.7506431224896,1.7637242864997362,0.42917745256815154,145.81510978149302,0.0,0.0006537194768578794
1720289770810,2024-07-06,450,-67.40924084827013,52.79848517133215,584.9953124389649,5.43900000000001,2.2014110638960105,0.9997806834574164,1720289334552.2334,1720289342.1850498,52.804394346015485,-67.42078072311642,605.7506470728051,1.7632468682369973,0.42888650980013115,145.81659683881287,0.0,0.0006550607441819347
1720289771310,2024-07-06,200,-67.40925742254761,52.79848424155511,585.3044080426056,5.43900000000001,2.21829147585818,0.9583715337302052,1720289335329.216,1720289342.9620216,52.80439434527551,-67.42078072387204,605.7506510231206,1.7627694499742583,0.4285955670321107,145.81808389613275,0.0,0.0006564020115059899
1720289771810,2024-07-06,450,-67.40927380819815,52.79848328805417,585.3506472757513,5.43900000000001,2.175884285574857,0.9678243811490972,1720289336106.1987,1720289343.7389936,52.804394344535545,-67.42078072462768,605.7506549734361,1.7622920317115192,0.42830462426409033,145.8195709534526,0.0,0.0006577432788300451
1720289772309,2024-07-06,200,-67.40928986535062,52.79848256419087,585.6850363693238,5.43900000000001,2.131538746603826,0.9702255035727192,1720289336883.1814,1720289344.5159655,52.80439434379558,-67.4207807253833,605.7506589237515,1.7618146134487802,0.4280136814960699,145.82105801077245,0.0,0.0006590845461541003
1720289772814,2024-07-06,450,-67.4093060214864,52.79848172553378,585.3052426681519,5.43900000000001,2.179635337676192,0.8168034084886803,1720289337660.164,1720289345.2929375,52.804394343055606,-67.42078072613891,605.7506628740671,1.7613371951860413,0.42772273872804945,145.82254506809232,0.0,0.0006604258134781557
1720289773309,2024-07-06,200,-67.4093221535251,52.79848071575185,585.3833133468629,5.43900000000001,2.2339479127508537,0.9986539679034828,1720289338437.1467,1720289346.0699093,52.80439434231564,-67.42078072689455,605.7506668243825,1.7608597769233023,0.42743179596002906,145.82403212541217,0.0,0.0006617670808022109
1720289773810,2024-07-06,450,-67.40933841780219,52.79847957223346,584.977986656189,5.43900000000001,2.1929360666372064,0.992013231567916,1720289339214.1294,1720289346.8468814,52.80439434157567,-67.42078072765017,605.750670774698,1.7603823586605631,0.4271408531920086,145.82551918273202,0.0,0.0006631083481262661
1720289774309,2024-07-06,200,-67.40935463326872,52.79847849321754,585.8620819916872,5.43900000000001,2.2151146632372902,0.8636208387206596,1720289339991.112,1720289347.6238532,52.8043943408357,-67.42078072840579,605.7506747250135,1.7599049403978242,0.4268499104239882,145.82700624005187,0.0,0.0006644496154503214
1720289774811,2024-07-06,450,-67.40937102687242,52.79847733326835,584.9860500106812,5.43900000000001,2.1340115625145955,0.979279786550388,1720289340768.0947,1720289348.4008253,52.80439434009573,-67.42078072916142,605.750678675329,1.7594275221350852,0.4265589676559678,145.82849329737175,0.0,0.0006657908827743766
1720289775309,2024-07-06,200,-67.40938622730769,52.79847611818685,587.2010506591797,5.43900000000001,1.9485166053827343,0.9494165360248704,1720289341545.0774,1720289349.177797,52.80439433935576,-67.42078072991704,605.7506826256445,1.758950103872346,0.42626802488794735,145.8299803546916,0.0,0.0006671321500984319
1720289775809,2024-07-06,450,-67.40940047824154,52.79847550997385,584.9652345008465,5.43900000000001,1.789658950301581,0.9209410333268186,1720289342322.06,1720289349.9547691,52.80439433861579,-67.42078073067266,605.75068657596,1.7584726856096071,0.4259770821199269,145.83146741201145,0.0,0.0006684734174224871
1720289776310,2024-07-06,200,-67.40941385229915,52.798475198200165,585.5238160476686,5.43900000000001,1.7643897692940635,0.953053630462963,1720289343099.0427,1720289350.731741,52.80439433787583,-67.4207807314283,605.7506905262755,1.7579952673468682,0.4256861393519065,145.8329544693313,0.0,0.0006698146847465424
1720289776810,2024-07-06,450,-67.40942725958165,52.798474979924585,585.1321488723755,5.43900000000001,1.9407510653061089,0.8955737098810842,1720289343876.0256,1720289351.508713,52.804394337135854,-67.42078073218391,605.750694476591,1.757517849084129,0.4253951965838861,145.83444152665118,0.0,0.0006711559520705976
1720289777309,2024-07-06,200,-67.40944199435337,52.79847472994904,585.3920066986085,5.43900000000001,2.219799946890387,0.8853917248586777,1720289344653.0083,1720289352.2856848,52.80439433639589,-67.42078073293953,605.7506984269065,1.75704043082139,0.4251042538158657,145.83592858397103,0.0,0.0006724972193946528
1720289777809,2024-07-06,450,-67.40945822544042,52.798474513418185,585.446887260437,5.43900000000001,2.306480960953197,0.997418156322508,1720289345429.991,1720289353.0626566,52.804394335655914,-67.42078073369517,605.750702377222,1.756563012558651,0.42481331104784525,145.83741564129087,0.0,0.000673838486718708
1720289778310,2024-07-06,200,-67.4094750261689,52.7984739698873,585.3619235929735,5.43900000000001,2.2897378302263443,0.9901203248015878,1720289346206.9736,1720289353.8396287,52.80439433491595,-67.42078073445079,605.7507063275375,1.7560855942959122,0.4245223682798248,145.83890269861072,0.0,0.0006751797540427633
1720289778815,2024-07-06,450,-67.40949208753709,52.798473345115,585.3263803574412,5.43900000000001,2.289199539464458,0.945199858418312,1720289346983.9563,1720289354.6166005,52.80439433417598,-67.4207807352064,605.7507102778529,1.755608176033173,0.4242314255118044,145.8403897559306,0.0,0.0006765210213668185
1720289779309,2024-07-06,200,-67.409509223144,52.798472907643216,585.4428033218385,5.43900000000001,2.2211947736792634,0.8856290640190984,1720289347760.939,1720289355.3935726,52.80439433343601,-67.42078073596204,605.7507142281685,1.755130757770434,0.423940482743784,145.84187681325045,0.0,0.0006778622886908738
1720289779810,2024-07-06,450,-67.40952587609443,52.79847274964849,585.3658628026789,5.43900000000001,2.106800594133388,0.9889754224547088,1720289348537.9216,1720289356.1705444,52.80439433269604,-67.42078073671766,605.7507181784839,1.754653339507695,0.42364953997576354,145.8433638705703,0.0,0.000679203556014929
1720289780311,2024-07-06,200,-67.40954209327178,52.798472793818206,585.7403566513062,5.43900000000001,2.1116079028731143,0.8129170002789577,1720289349314.9043,1720289356.9475164,52.804394331956075,-67.42078073747328,605.7507221287995,1.754175921244956,0.42335859720774316,145.84485092789015,0.0,0.0006805448233389843
1720289780809,2024-07-06,450,-67.40955823642358,52.79847302798001,585.3577182159424,5.43900000000001,2.1725108433971774,0.9743640505160144,1720289350091.887,1720289357.7244883,52.8043943312161,-67.42078073822891,605.7507260791149,1.753698502982217,0.4230676544397227,145.84633798521003,0.0,0.0006818860906630395
1720289781309,2024-07-06,200,-67.40957453907268,52.798473200532456,585.4704962310792,5.43900000000001,2.1997726179357384,0.9935137511524968,1720289350868.8696,1720289358.5014603,52.804394330476136,-67.42078073898453,605.7507300294304,1.753221084719478,0.4227767116717023,145.84782504252988,0.0,0.0006832273579870947
1720289781811,2024-07-06,450,-67.40959113609738,52.79847306569697,585.2638866958619,5.43900000000001,2.180008081525608,0.9633627872287116,1720289351645.8523,1720289359.2784321,52.80439432973616,-67.42078073974015,605.7507339797459,1.7527436664567388,0.4224857689036819,145.84931209984973,0.0,0.0006845686253111501
1720289782309,2024-07-06,200,-67.40960767343276,52.79847280339471,585.684324661255,5.43900000000001,2.2115068618548777,0.9802727385425956,1720289352422.835,1720289360.0554042,52.804394328996196,-67.42078074049579,605.7507379300614,1.752266248194,0.42219482613566145,145.85079915716958,0.0,0.0006859098926352053
1720289782808,2024-07-06,450,-67.4096247065757,52.79847270911556,585.7555352554322,5.43900000000001,2.328756368456998,0.9975823928918024,1720289353199.8176,1720289360.832376,52.80439432825623,-67.4207807412514,605.7507418803768,1.751788829931261,0.42190388336764106,145.85228621448945,0.0,0.0006872511599592605
1720289783309,2024-07-06,200,-67.40964253974016,52.79847258852823,585.336731429313,5.43900000000001,2.3395743514358243,0.9750165609574049,1720289353976.8003,1720289361.609348,52.804394327516256,-67.42078074200703,605.7507458306924,1.7513114116685218,0.4216129405996206,145.8537732718093,0.0,0.0006885924272833157
1720289783809,2024-07-06,450,-67.40966017771837,52.79847232113494,585.004483054036,5.43900000000001,2.2121407013773267,0.9877378455557236,1720289354753.783,1720289362.3863199,52.80439432677629,-67.42078074276266,605.7507497810078,1.7508339934057828,0.4213219978316002,145.85526032912915,0.0,0.000689933694607371
1720289784309,2024-07-06,200,-67.40967663657503,52.79847190996625,585.2833541641236,5.43900000000001,2.066218471287467,0.9902717063395332,1720289355530.7656,1720289363.163292,52.804394326036316,-67.42078074351828,605.7507537313234,1.7503565751430439,0.4210310550635798,145.85674738644903,0.0,0.0006912749619314262
1720289784809,2024-07-06,450,-67.40969260769981,52.79847157155431,584.3237609252931,5.43900000000001,2.01084730457628,0.8005867636514779,1720289356307.7483,1720289363.9402637,52.80439432529635,-67.4207807442739,605.7507576816388,1.749879156880305,0.42074011229555935,145.85823444376888,0.0,0.0006926162292554814
1720289785308,2024-07-06,200,-67.40970805351539,52.79847121272935,584.9151722106934,5.43900000000001,1.9598625746306884,0.9874703741278412,1720289357084.7312,1720289364.7172356,52.804394324556384,-67.42078074502953,605.7507616319543,1.7494017386175658,0.4204491695275389,145.85972150108873,0.0,0.0006939574965795366
1720289785809,2024-07-06,450,-67.40972341625277,52.79847078267685,585.0765358266349,5.43900000000001,2.026128683020934,0.9567753669393552,1720289357861.7139,1720289365.4942076,52.80439432381641,-67.42078074578515,605.7507655822699,1.7489243203548268,0.4201582267595185,145.86120855840858,0.0,0.0006952987639035919
1720289786312,2024-07-06,200,-67.40973938197705,52.79847016993901,585.2215881500244,5.43900000000001,2.1925242709802792,0.973967250145704,1720289358638.6965,1720289366.2711794,52.804394323076444,-67.42078074654077,605.7507695325853,1.7484469020920879,0.4198672839914981,145.86269561572846,0.0,0.0006966400312276472
1720289786813,2024-07-06,450,-67.40975592123074,52.79846950177564,585.1088212356567,5.43900000000001,2.2734678312743486,0.9152187899857548,1720289359415.6792,1720289367.0481515,52.80439432233648,-67.4207807472964,605.7507734829009,1.7479694838293487,0.41957634122347764,145.8641826730483,0.0,0.0006979812985517024
1720289787310,2024-07-06,200,-67.40977274847856,52.798468863941615,584.9915981722746,5.43900000000001,2.272220683857998,0.9987696585583438,1720289360192.6619,1720289367.8251233,52.804394321596504,-67.42078074805202,605.7507774332163,1.7474920655666097,0.41928539845545726,145.86566973036815,0.0,0.0006993225658757577
1720289787811,2024-07-06,450,-67.40978977755542,52.79846808314136,584.4575398788453,5.43900000000001,2.2658082623350984,0.9734887254946828,1720289360969.6445,1720289368.6020954,52.80439432085654,-67.42078074880764,605.7507813835318,1.7470146473038708,0.4189944556874368,145.867156787688,0.0,0.0007006638331998129
1720289788309,2024-07-06,200,-67.40980647287152,52.79846723520668,584.8616143951417,5.43900000000001,2.2297178937302533,0.9926699051797352,1720289361746.6272,1720289369.3790672,52.804394320116565,-67.42078074956328,605.7507853338473,1.7465372290411316,0.41870351291941643,145.86864384500788,0.0,0.0007020051005238681
1720289788809,2024-07-06,450,-67.40982310061406,52.79846639730796,584.3026754850407,5.43900000000001,2.2032195095798723,0.9999208007339148,1720289362523.6099,1720289370.1560392,52.8043943193766,-67.4207807503189,605.7507892841628,1.7460598107783927,0.418412570151396,145.87013090232773,0.0,0.0007033463678479234
1720289789310,2024-07-06,200,-67.40983980743061,52.79846553590559,584.4538718566895,5.43900000000001,2.1779771163359483,0.903126579260892,1720289363300.5925,1720289370.933011,52.80439431863663,-67.42078075107452,605.7507932344782,1.7455823925156537,0.41812162738337555,145.87161795964758,0.0,0.0007046876351719787
1720289789809,2024-07-06,450,-67.40985612618752,52.79846469399768,584.2625183537277,5.43900000000001,2.14767582489418,0.9896247051037256,1720289364077.5752,1720289371.709983,52.80439431789666,-67.42078075183015,605.7507971847938,1.7451049742529148,0.41783068461535516,145.87310501696743,0.0,0.0007060289024960339
1720289790311,2024-07-06,200,-67.4098722853876,52.798463932608605,584.7810464326508,5.43900000000001,2.0916096626784664,0.9573145942442888,1720289364854.5579,1720289372.486955,52.80439431715669,-67.42078075258577,605.7508011351092,1.7446275559901756,0.4175397418473347,145.8745920742873,0.0,0.0007073701698200891
1720289790811,2024-07-06,450,-67.4098879110578,52.79846335135739,584.2123770290257,5.43900000000001,2.045968735055322,0.994826840363326,1720289365631.5405,1720289373.263927,52.804394316416726,-67.42078075334139,605.7508050854248,1.7441501377274367,0.4172487990793143,145.87607913160716,0.0,0.0007087114371441443
1720289791312,2024-07-06,200,-67.40990349610566,52.79846296844711,584.4007882080078,5.43900000000001,2.0920562147318,0.8861662173682989,1720289366408.5232,1720289374.0408988,52.80439431567675,-67.42078075409702,605.7508090357402,1.7436727194646977,0.4169578563112939,145.877566188927,0.0,0.0007100527044681996
1720289791814,2024-07-06,450,-67.40991951023624,52.79846272811525,583.9870040205352,5.43900000000001,2.19062992900302,0.8358554121992567,1720289367185.5059,1720289374.8178709,52.804394314936786,-67.42078075485264,605.7508129860557,1.7431953012019585,0.41666691354327345,145.87905324624685,0.0,0.0007113939717922548
1720289792309,2024-07-06,200,-67.4099360792998,52.79846253789823,585.3214515075684,5.43900000000001,2.2968921642702065,0.9177020524724432,1720289367962.4885,1720289375.5948427,52.80439431419681,-67.42078075560826,605.7508169363712,1.7427178829392196,0.416375970775253,145.88054030356673,0.0,0.00071273523911631
1720289792810,2024-07-06,450,-67.40995334521605,52.79846230625657,584.0929850921631,5.43900000000001,2.328458078422944,0.999774591783101,1720289368739.4712,1720289376.3718147,52.80439431345685,-67.4207807563639,605.7508208866867,1.7422404646764806,0.4160850280072326,145.88202736088658,0.0,0.0007140765064403654
1720289793311,2024-07-06,200,-67.4099704424046,52.798462060198105,585.8983971034571,5.43900000000001,2.3089500133561294,0.9889494361886646,1720289369516.4539,1720289377.1487865,52.80439431271688,-67.42078075711952,605.7508248370021,1.7417630464137415,0.4157940852392122,145.88351441820643,0.0,0.0007154177737644206
1720289793810,2024-07-06,450,-67.40998738796692,52.79846174766284,584.1155634436853,5.43900000000001,2.2580564252847117,0.9935142845636612,1720289370293.4365,1720289377.9257584,52.80439431197691,-67.42078075787514,605.7508287873177,1.7412856281510025,0.4155031424711918,145.88500147552628,0.0,0.0007167590410884758
1720289794309,2024-07-06,200,-67.41000434787675,52.798461355355954,585.9782589991353,5.43900000000001,2.186805454312006,0.9904540327376756,1720289371070.4194,1720289378.7027304,52.80439431123694,-67.42078075863077,605.7508327376332,1.7408082098882636,0.41521219970317136,145.88648853284616,0.0,0.000718100308412531
1720289794811,2024-07-06,450,-67.41002083088813,52.79846096239078,586.0119581831312,5.43900000000001,2.153473315804958,0.9452832014264014,1720289371847.402,1720289379.4797022,52.80439431049697,-67.42078075938639,605.7508366879487,1.7403307916255244,0.4149212569351509,145.887975590166,0.0,0.0007194415757365863
1720289795310,2024-07-06,200,-67.41003701629634,52.79846053468525,585.9813763961793,5.43900000000001,2.1218555751786345,0.8342889787364978,1720289372624.3848,1720289380.2566743,52.804394309757,-67.42078076014201,605.7508406382642,1.7398533733627854,0.4146303141671305,145.88946264748586,0.0,0.0007207828430606416
1720289795810,2024-07-06,450,-67.41005275079607,52.79846017630953,585.9926121510098,5.43900000000001,2.096907707193641,0.9428438435035892,1720289373401.3674,1720289381.033646,52.804394309017034,-67.42078076089764,605.7508445885796,1.7393759551000465,0.4143393713991101,145.8909497048057,0.0,0.0007221241103846968
1720289796309,2024-07-06,200,-67.41006834197078,52.798459808580176,585.1431897506715,5.43900000000001,2.1234624119848133,0.9729113587973482,1720289374178.35,1720289381.8106182,52.80439430827706,-67.42078076165326,605.7508485388952,1.7388985368373076,0.41404842863108965,145.89243676212558,0.0,0.000723465377708752
1720289796811,2024-07-06,450,-67.4100838673071,52.79845933015894,584.144984473317,5.43900000000001,2.157324983234851,0.9451745514530256,1720289374955.3328,1720289382.58759,52.804394307537095,-67.42078076240888,605.7508524892106,1.7384211185745684,0.41375748586306926,145.89392381944543,0.0,0.0007248066450328073
1720289797309,2024-07-06,200,-67.4100996046752,52.79845869567946,584.0060402069092,5.43900000000001,2.168335420842986,0.9946619533224504,1720289375732.3154,1720289383.364562,52.80439430679713,-67.42078076316452,605.7508564395262,1.7379437003118294,0.4134665430950488,145.89541087676528,0.0,0.0007261479123568625
1720289797814,2024-07-06,450,-67.41011571737948,52.79845799806584,583.6418295810345,5.43900000000001,2.20160463453978,0.9955931819267032,1720289376509.298,1720289384.1415339,52.804394306057155,-67.42078076392013,605.7508603898416,1.7374662820490905,0.4131756003270284,145.89689793408516,0.0,0.0007274891796809177
1720289798309,2024-07-06,200,-67.41013203520836,52.79845719393426,583.826512740258,5.43900000000001,2.2218899888571197,0.9650924138540112,1720289377286.2808,1720289384.918506,52.80439430531719,-67.42078076467575,605.7508643401571,1.7369888637863513,0.412884657559008,145.898384991405,0.0,0.0007288304470049729
1720289798811,2024-07-06,450,-67.41014895049463,52.798456297917625,583.1035852966309,5.43900000000001,2.2482057917408738,0.9181657268030534,1720289378063.2634,1720289385.6954777,52.804394304577215,-67.42078076543137,605.7508682904726,1.7365114455236124,0.41259371479098755,145.89987204872486,0.0,0.0007301717143290282
1720289799309,2024-07-06,200,-67.41016619048885,52.79845542682615,583.8340158996582,5.43900000000001,2.2555424058303077,0.9754914201545148,1720289378840.246,1720289386.4724498,52.80439430383725,-67.42078076618701,605.7508722407881,1.7360340272608734,0.41230277202296717,145.9013591060447,0.0,0.0007315129816530834
1720289799814,2024-07-06,450,-67.41018334858187,52.79845460404083,583.1222052917481,5.43900000000001,2.1759289394592587,0.9516477575927031,1720289379617.2288,1720289387.2494216,52.80439430309728,-67.42078076694263,605.7508761911035,1.7355566089981342,0.4120118292549467,145.9028461633646,0.0,0.0007328542489771387
1720289800310,2024-07-06,200,-67.41019975406836,52.79845373505103,584.1369433746338,5.43900000000001,2.162622655111825,0.9794581309664886,1720289380394.2114,1720289388.0263937,52.80439430235731,-67.42078076769825,605.7508801414191,1.7350791907353953,0.4117208864869263,145.90433322068444,0.0,0.000734195516301194
1720289800809,2024-07-06,450,-67.4102164137481,52.79845310485018,583.2035590515137,5.43900000000001,2.2158903975055253,0.9650251267934667,1720289381171.194,1720289388.8033655,52.80439430161734,-67.42078076845388,605.7508840917345,1.7346017724726563,0.41142994371890584,145.90582027800428,0.0,0.0007355367836252492
1720289801311,2024-07-06,200,-67.4102327344769,52.798452765380645,584.7545319605562,5.43900000000001,2.171964454283183,0.8984634316113421,1720289381948.1768,1720289389.5803375,52.80439430087737,-67.4207807692095,605.7508880420501,1.7341243542099174,0.41113900095088546,145.90730733532413,0.0,0.0007368780509493044
1720289801809,2024-07-06,450,-67.41024902049894,52.79845244917251,583.1756513366698,5.43900000000001,2.19285654144043,0.9254877668683776,1720289382725.1594,1720289390.3573093,52.8043943001374,-67.42078076996512,605.7508919923655,1.7336469359471782,0.410848058182865,145.908794392644,0.0,0.0007382193182733596
1720289802310,2024-07-06,200,-67.41026578491223,52.79845222810939,584.7835442944152,5.43900000000001,2.261480707236448,0.9654126359649036,1720289383502.142,1720289391.1342812,52.80439429939744,-67.42078077072075,605.750895942681,1.7331695176844393,0.41055711541484463,145.91028144996386,0.0,0.000739560585597415
1720289802809,2024-07-06,450,-67.41028237057984,52.79845197367352,583.2173700866699,5.43900000000001,2.206284370358081,0.9838994572361912,1720289384279.125,1720289391.9112532,52.80439429865746,-67.42078077147637,605.7508998929965,1.7326920994217003,0.4102661726468242,145.9117685072837,0.0,0.0007409018529214702
1720289803309,2024-07-06,200,-67.41029867522586,52.798451626765925,587.0205158004761,5.43900000000001,2.182327797119646,0.9689571347475512,1720289385056.1077,1720289392.688225,52.8043942979175,-67.42078077223199,605.750903843312,1.7322146811589612,0.40997522987880375,145.91325556460356,0.0,0.0007422431202455254
1720289803809,2024-07-06,450,-67.41031495521177,52.79845112685816,583.1859704457293,5.43900000000001,2.19115897358198,0.9896883550448644,1720289385833.0903,1720289393.465197,52.80439429717753,-67.42078077298763,605.7509077936276,1.7317372628962222,0.40968428711078336,145.91474262192344,0.0,0.0007435843875695806
1720289804309,2024-07-06,200,-67.41033112033877,52.79845059482702,584.830133758545,5.43900000000001,2.1733513008962047,0.9747372739081462,1720289386610.073,1720289394.242169,52.80439429643756,-67.42078077374325,605.750911743943,1.7312598446334833,0.4093933443427629,145.9162296792433,0.0,0.0007449256548936359
1720289804808,2024-07-06,450,-67.41034725430089,52.7984500790471,584.2278493270875,5.43900000000001,2.151814643616706,0.9167978754004594,1720289387387.0557,1720289395.019141,52.80439429569759,-67.42078077449887,605.7509156942585,1.730782426370744,0.4091024015747425,145.91771673656314,0.0,0.0007462669222176911
1720289805308,2024-07-06,200,-67.41036319472565,52.798449309750815,585.711266532898,5.43900000000001,2.137054504760352,0.994826840363326,1720289388164.0383,1720289395.7961128,52.80439429495762,-67.4207807752545,605.750919644574,1.7303050081080051,0.4088114588067221,145.91920379388299,0.0,0.0007476081895417463
1720289805810,2024-07-06,450,-67.41037940265038,52.79844839065304,585.8270333460027,5.43900000000001,2.1330350909203326,0.9141410357214436,1720289388941.021,1720289396.5730848,52.80439429421765,-67.42078077601012,605.7509235948895,1.7298275898452662,0.40852051603870165,145.92069085120286,0.0,0.0007489494568658015
1720289806309,2024-07-06,200,-67.4103954754227,52.798447548510815,585.7691629180908,5.43900000000001,2.1093223902285314,0.9792117449230856,1720289389718.0037,1720289397.3500566,52.804394293477685,-67.42078077676574,605.750927545205,1.729350171582527,0.4082295732706812,145.9221779085227,0.0,0.0007502907241898569
1720289806810,2024-07-06,450,-67.41041183469677,52.79844683239296,585.7826419219972,5.43900000000001,2.1295614722158347,0.988904272132924,1720289390494.9863,1720289398.1270287,52.80439429273771,-67.42078077752137,605.7509314955205,1.728872753319788,0.4079386305026608,145.92366496584256,0.0,0.0007516319915139121
1720289807309,2024-07-06,200,-67.4104283863492,52.798446283102734,586.4767838058473,5.43900000000001,2.1508108218311826,0.9801470182377956,1720289391271.969,1720289398.9040005,52.804394291997745,-67.42078077827699,605.7509354458359,1.7283953350570491,0.4076476877346404,145.9251520231624,0.0,0.0007529732588379673
1720289807810,2024-07-06,450,-67.41044482589452,52.79844582824335,585.8167350505482,5.43900000000001,2.143651396167765,0.9599177754425846,1720289392048.9517,1720289399.6809726,52.80439429125777,-67.42078077903261,605.7509393961515,1.7279179167943102,0.40735674496662,145.9266390804823,0.0,0.0007543145261620225
1720289808315,2024-07-06,200,-67.41046115251193,52.79844540369728,587.9043352480031,5.43900000000001,2.103343912601414,0.9987696585583438,1720289392825.9343,1720289400.4579444,52.804394290517806,-67.42078077978825,605.7509433464669,1.727440498531571,0.40706580219859956,145.92812613780214,0.0,0.0007556557934860778
1720289808809,2024-07-06,450,-67.41047697546246,52.79844496453984,585.8104544219972,5.43900000000001,2.0566285889366096,0.9977040995056332,1720289393602.917,1720289401.2349164,52.80439428977784,-67.42078078054386,605.7509472967824,1.726963080268832,0.4067748594305791,145.929613195122,0.0,0.0007569970608101331
1720289809309,2024-07-06,200,-67.41049241138265,52.79844456443128,588.0793405685425,5.43900000000001,2.007426466323874,0.9446118036024792,1720289394379.8997,1720289402.0118883,52.804394289037866,-67.42078078129948,605.7509512470979,1.726485662006093,0.40648391666255873,145.93110025244187,0.0,0.0007583383281341883
1720289809810,2024-07-06,450,-67.410507798388,52.79844420676914,585.7450747833252,5.43900000000001,2.0016081810732147,0.9667694666626696,1720289395156.8823,1720289402.7888603,52.8043942882979,-67.42078078205512,605.7509551974134,1.726008243743354,0.4061929738945383,145.93258730976171,0.0,0.0007596795954582436
1720289810309,2024-07-06,200,-67.4105236527264,52.79844397355887,587.3963173446656,5.43900000000001,2.129525073320997,0.9612377986555736,1720289395933.865,1720289403.5658321,52.80439428755793,-67.42078078281074,605.7509591477288,1.725530825480615,0.40590203112651785,145.93407436708156,0.0,0.0007610208627822988
1720289810809,2024-07-06,450,-67.41053983208063,52.79844367660028,585.2224504623414,5.43900000000001,2.1501875235012786,0.9621223580486314,1720289396710.8477,1720289404.342804,52.80439428681796,-67.42078078356636,605.7509630980444,1.725053407217876,0.40561108835849746,145.9355614244014,0.0,0.000762362130106354
1720289811308,2024-07-06,200,-67.41055628277994,52.79844335984564,587.2572516784668,5.43900000000001,2.14329860006364,0.9965599152697584,1720289397487.8306,1720289405.119776,52.804394286077994,-67.42078078432199,605.7509670483598,1.7245759889551369,0.405320145590477,145.9370484817213,0.0,0.0007637033974304092
1720289811809,2024-07-06,450,-67.41057270002288,52.79844305775741,585.9057552490235,5.43900000000001,2.1663140682995268,0.967122445401767,1720289398264.8132,1720289405.8967478,52.80439428533802,-67.42078078507761,605.7509709986754,1.724098570692398,0.4050292028224566,145.93853553904114,0.0,0.0007650446647544645
1720289812308,2024-07-06,200,-67.41058922639498,52.79844276799137,588.4561586914062,5.43900000000001,2.1422067740912136,0.981036676995096,1720289399041.796,1720289406.67372,52.804394284598054,-67.42078078583323,605.7509749489908,1.723621152429659,0.4047382600544362,145.940022596361,0.0,0.0007663859320785197
1720289812809,2024-07-06,450,-67.410605384076,52.79844254496717,589.0862391052246,5.43900000000001,2.045780215616809,0.9186100144865595,1720289399818.7786,1720289407.4506917,52.80439428385809,-67.42078078658886,605.7509788993063,1.72314373416692,0.40444731728641575,145.94150965368084,0.0,0.0007677271994025749
1720289813308,2024-07-06,200,-67.41062083330561,52.79844224935795,588.6793346557617,5.43900000000001,1.9995701075329864,0.9527167697016952,1720289400595.7612,1720289408.2276638,52.804394283118114,-67.42078078734448,605.7509828496219,1.7226663159041808,0.40415637451839537,145.94299671100072,0.0,0.0007690684667266302
1720289813809,2024-07-06,450,-67.41063592111648,52.7984417140767,589.0236261901856,5.43900000000001,1.980837515249629,0.9408807621883728,1720289401372.744,1720289409.0046356,52.80439428237815,-67.4207807881001,605.7509867999373,1.722188897641442,0.4038654317503749,145.94448376832057,0.0,0.0007704097340506855
1720289814308,2024-07-06,200,-67.4106512461574,52.79844093234156,587.4786876831055,5.43900000000001,2.111288408680592,0.9919588614262492,1720289402149.7266,1720289409.7816076,52.804394281638174,-67.42078078885574,605.7509907502529,1.721711479378703,0.4035744889823545,145.94597082564042,0.0,0.0007717510013747407
1720289814811,2024-07-06,450,-67.41066714386096,52.79844005313609,587.1536253128053,5.43900000000001,2.161273916330507,0.9489117865414208,1720289402926.7092,1720289410.5585794,52.80439428089821,-67.42078078961136,605.7509947005683,1.7212340611159638,0.4032835462143341,145.94745788296026,0.0,0.0007730922686987959
