systemTimeMs,gnssTime,latitudeDeg,longitudeDeg,altitude,rollDeg,pitchDeg,yawDeg,agl,hSpeed
1720289255300,1720289262.933913,52.804394421492326,-67.42078064604274,605.750244140625,1.811943531036377,0.4585626721382141,145.6649169921875,0,0.0005182514771283021
1720289255400,1720289263.034086,52.8043944219341,-67.42078064575128,605.7525634765625,1.813211441040039,0.4551883041858673,145.66383361816406,0,0.000678698319351836
1720289255500,1720289263.134051,52.80439442176779,-67.42078064383466,605.7548828125,1.81484854221344,0.44588595628738403,145.67515563964844,0,0.0009582196674459793
1720289255600,1720289263.234056,52.80439442216855,-67.42078064178085,605.7572021484375,1.819924235343933,0.4484085440635681,145.69198608398438,0,0.0004310465593755663
1720289255700,1720289263.334124,52.80439442005442,-67.42078064127307,605.7576904296875,1.8173110485076904,0.45173293352127075,145.70635986328125,0,0.0003675507116623613
1720289255800,1720289263.433891,52.80439441635335,-67.42078064020532,605.7576904296875,1.8211339712142944,0.4454564154148102,145.71987915039062,0,0.0009990530375843067
1720289255900,1720289263.5338821,52.804394412968186,-67.4207806402932,605.7565307617188,1.8195513486862183,0.4386308193206787,145.72357177734375,0,0.0009616438938954728
1720289256000,1720289263.633877,52.80439441006785,-67.42078064185452,605.7565307617188,1.8170478343963623,0.4447769522666931,145.72250366210938,0,0.0010530095573694491
1720289256100,1720289263.734064,52.804394407509704,-67.42078064300617,605.7560424804688,1.819956660270691,0.44719454646110535,145.72116088867188,0,0.0020983005181694128
1720289256200,1720289263.834244,52.804394404881286,-67.42078064413136,605.7560424804688,1.8204753398895264,0.44555994868278503,145.72589111328125,0,0.002195963512012586
1720289256301,1720289263.934425,52.804394402694875,-67.42078064570936,605.7557373046875,1.8239004611968994,0.4467391073703766,145.72581481933594,0,0.0020384453237567773
1720289256400,1720289264.033895,52.804394401053536,-67.4207806477162,605.7557373046875,1.8235996961593628,0.44591376185417175,145.72923278808594,0,0.0026829544216783194
1720289256500,1720289264.133947,52.80439439911662,-67.4207806496974,605.7557373046875,1.8221008777618408,0.4420154094696045,145.72991943359375,0,0.00323129489038863
1720289256600,1720289264.234098,52.8043943979795,-67.42078065224113,605.7557373046875,1.822701334953308,0.4431800842285156,145.7288818359375,0,0.0023992218367143952
1720289256700,1720289264.334027,52.80439439676096,-67.42078065472693,605.7557373046875,1.8207894563674927,0.44553035497665405,145.7324981689453,0,0.0034220563960188333
1720289256800,1720289264.434196,52.804394394706975,-67.42078065634915,605.7557373046875,1.8266346454620361,0.44733405113220215,145.7383575439453,0,0.004092273048660026
1720289256900,1720289264.533828,52.80439439171273,-67.42078065839995,605.7557373046875,1.8300552368164062,0.4470381736755371,145.7432403564453,0,0.005239467939654055
1720289257000,1720289264.633845,52.80439438793293,-67.42078066203639,605.7557373046875,1.8322722911834717,0.4508485198020935,145.74517822265625,0,0.005500997912946353
1720289257100,1720289264.7340102,52.80439438430222,-67.42078066646515,605.7557373046875,1.8343749046325684,0.45575034618377686,145.75650024414062,0,0.006744334137886043
1720289257200,1720289264.8340428,52.804394380018444,-67.42078067062091,605.7557373046875,1.8324631452560425,0.4527799189090729,145.7677764892578,0,0.006757705200221287
1720289257300,1720289264.9339662,52.804394376968865,-67.42078067436776,605.7555541992188,1.836854338645935,0.454318106174469,145.77000427246094,0,0.006947440178393821
1720289257400,1720289265.033918,52.804394374910636,-67.4207806782431,605.7555541992188,1.83771550655365,0.46112191677093506,145.7672576904297,0,0.006284337197931805
1720289257500,1720289265.133864,52.804394373355215,-67.4207806821757,605.7555541992188,1.841361165046692,0.460830420255661,145.76881408691406,0,0.006808646894302438
1720289257600,1720289265.2340622,52.80439437175265,-67.42078068748656,605.7555541992188,1.8420264720916748,0.46179646253585815,145.7717742919922,0,0.00808499926758598
1720289257700,1720289265.3342311,52.80439437058174,-67.42078069375704,605.7555541992188,1.8409603834152222,0.46915000677108765,145.7708282470703,0,0.007903617554505235
1720289257800,1720289265.4339058,52.804394369701846,-67.42078070050273,605.7555541992188,1.8401412963867188,0.4675246477127075,145.7695770263672,0,0.008837935532293088
1720289257900,1720289265.53382,52.80439436893039,-67.4207807073216,605.7552490234375,1.8427197933197021,0.4674990177154541,145.76736450195312,0,0.009402277012667095
1720289258000,1720289265.6338298,52.80439436934254,-67.42078071275711,605.7552490234375,1.8443912267684937,0.46978431940078735,145.76641845703125,0,0.009179229519648105
1720289258100,1720289265.733949,52.80439437001439,-67.42078071698376,605.7552490234375,1.8452306985855103,0.4754406809806824,145.76437377929688,0,0.009743954633858621
1720289258200,1720289265.834021,52.80439437069648,-67.42078071947395,605.7552490234375,1.8474842309951782,0.4718426465988159,145.76551818847656,0,0.009346092183280103
1720289258300,1720289265.9340212,52.80439437116983,-67.42078072193188,605.7552490234375,1.8446898460388184,0.47361209988594055,145.77073669433594,0,0.009584707986540408
1720289258400,1720289266.033911,52.80439437155459,-67.42078072485168,605.7552490234375,1.8438106775283813,0.47584226727485657,145.77134704589844,0,0.00913754944335381
1720289258500,1720289266.133864,52.80439437192944,-67.42078072769971,605.7552490234375,1.8421074151992798,0.477765291929245,145.77413940429688,0,0.009037949666156557
1720289258600,1720289266.233925,52.80439437252312,-67.42078073116434,605.7552490234375,1.8426779508590698,0.47720953822135925,145.77793884277344,0,0.00982640770733728
1720289258700,1720289266.333973,52.80439437283986,-67.42078073540002,605.7552490234375,1.8442362546920776,0.482375830411911,145.7806396484375,0,0.009577195007885805
1720289258800,1720289266.433953,52.80439437302174,-67.42078073990147,605.7552490234375,1.8436309099197388,0.480628103017807,145.7838592529297,0,0.010495054384996857
1720289258900,1720289266.5340438,52.80439437253185,-67.42078074532137,605.7552490234375,1.8416262865066528,0.47723695635795593,145.785888671875,0,0.011654087431365518
1720289259001,1720289266.634057,52.80439437162136,-67.42078075052375,605.7552490234375,1.840060830116272,0.4826963543891907,145.78915405273438,0,0.012214361989936537
1720289259100,1720289266.734189,52.80439437132795,-67.42078075637406,605.7552490234375,1.8392634391784668,0.48559480905532837,145.79254150390625,0,0.012175909571512062
1720289259200,1720289266.834382,52.80439437146395,-67.42078076221762,605.7552490234375,1.8412491083145142,0.484354168176651,145.79672241210938,0,0.012446632991499031
1720289259300,1720289266.933874,52.80439437208619,-67.42078076677883,605.7552490234375,1.8392796516418457,0.4795893132686615,145.80091857910156,0,0.013464254329219869
1720289259400,1720289267.033885,52.80439437362879,-67.4207807701106,605.7552490234375,1.8374295234680176,0.4818948805332184,145.80140686035156,0,0.013360332383684607
1720289259500,1720289267.1339788,52.80439437516009,-67.42078077196635,605.7552490234375,1.838242530822754,0.48157140612602234,145.80186462402344,0,0.01325556835274175
1720289259600,1720289267.233967,52.80439437650534,-67.42078077346093,605.7552490234375,1.8358603715896606,0.47696390748023987,145.7994384765625,0,0.013588557210485413
1720289259700,1720289267.333832,52.80439437832474,-67.4207807731268,605.7552490234375,1.8391834497451782,0.4746246635913849,145.8011474609375,0,0.013370454980094001
1720289259800,1720289267.4338381,52.80439438033674,-67.42078077118909,605.7552490234375,1.836734414100647,0.4755517244338989,145.80355834960938,0,0.013652480300541643
1720289259900,1720289267.533792,52.80439438198945,-67.42078076909941,605.7552490234375,1.8368730545043945,0.47069624066352844,145.80625915527344,0,0.013301902833545588
1720289260000,1720289267.633943,52.80439438351157,-67.42078076681634,605.7552490234375,1.8390865325927734,0.4712693393230438,145.8082275390625,0,0.013218962946503106
1720289260100,1720289267.73394,52.80439438511524,-67.42078076454477,605.7552490234375,1.8365845680236816,0.4719414710998535,145.81204223632812,0,0.013433482629390626
1720289260200,1720289267.833979,52.804394386833394,-67.42078076215573,605.7552490234375,1.83780837059021,0.4690209925174713,145.81520080566406,0,0.012978378194290425
1720289260300,1720289267.934101,52.80439438868939,-67.4207807600556,605.7552490234375,1.8362066745758057,0.46718814969062805,145.81875610351562,0,0.012931597868614857
1720289260400,1720289268.03389,52.804394390425344,-67.42078075917021,605.7552490234375,1.8383153676986694,0.4711854159832001,145.81515502929688,0,0.013156349844209115
1720289260500,1720289268.134091,52.80439439121236,-67.42078075994078,605.7552490234375,1.8402422666549683,0.4699963629245758,145.8157196044922,0,0.012765815670720531
1720289260600,1720289268.234272,52.8043943902521,-67.42078076179303,605.7552490234375,1.839633584022522,0.4631206691265106,145.82159423828125,0,0.012384206251461756
1720289260701,1720289268.334472,52.80439438923099,-67.42078076348166,605.7552490234375,1.840206503868103,0.4640912413597107,145.81552124023438,0,0.011975213415256829
1720289260800,1720289268.43395,52.8043943880335,-67.42078076607577,605.7552490234375,1.841253399848938,0.46862199902534485,145.80628967285156,0,0.012202734789079498
1720289260900,1720289268.533953,52.80439438625143,-67.42078076784635,605.7552490234375,1.8396211862564087,0.46560633182525635,145.8037567138672,0,0.011952451214475723
1720289261000,1720289268.633785,52.80439438509624,-67.42078076802609,605.7552490234375,1.8415679931640625,0.46524304151535034,145.79820251464844,0,0.011851365991966843
1720289261100,1720289268.733778,52.804394384643494,-67.42078076831153,605.7552490234375,1.8376871347427368,0.46909216046333313,145.78872680664062,0,0.011959592240479693
1720289261200,1720289268.833937,52.80439438484181,-67.42078076892577,605.7552490234375,1.8367315530776978,0.47348007559776306,145.7812957763672,0,0.012317513966889375
1720289261300,1720289268.933812,52.80439438417389,-67.42078076780068,605.7552490234375,1.8340543508529663,0.4698954224586487,145.77359008789062,0,0.011980313426043854
1720289261400,1720289269.0337741,52.804394383343976,-67.42078076520751,605.7552490234375,1.837378978729248,0.47203442454338074,145.77011108398438,0,0.012189889900927333
1720289261500,1720289269.133836,52.80439438229499,-67.4207807625187,605.7552490234375,1.838675856590271,0.47570353746414185,145.7660675048828,0,0.011546304911654183
1720289261600,1720289269.2339451,52.80439438135666,-67.42078075867273,605.7552490234375,1.8385059833526611,0.4735797643661499,145.7641143798828,0,0.011232148760877629
1720289261700,1720289269.334055,52.80439438060276,-67.42078075641231,605.7552490234375,1.8385387659072876,0.47099053859710693,145.76150512695312,0,0.011126520712579874
1720289261800,1720289269.434156,52.804394380409114,-67.42078075594294,605.7552490234375,1.8387020826339722,0.4795418381690979,145.7582550048828,0,0.011034696514991772
1720289261900,1720289269.533939,52.804394380378206,-67.42078075693892,605.7552490234375,1.8435620069503784,0.4767470359802246,145.75823974609375,0,0.010768539865002072
1720289262000,1720289269.634115,52.804394380191304,-67.42078075950242,605.7552490234375,1.8439688682556152,0.4673871695995331,145.75303649902344,0,0.011396165501004769
1720289262100,1720289269.733794,52.804394379943155,-67.4207807632588,605.7552490234375,1.844883680343628,0.47538262605667114,145.74722290039062,0,0.012355333173719498
1720289262200,1720289269.833798,52.80439437974838,-67.42078076674302,605.7552490234375,1.845354437828064,0.47981423139572144,145.74636840820312,0,0.012028421967549973
1720289262300,1720289269.933776,52.80439437924386,-67.42078076854405,605.7552490234375,1.8450144529342651,0.4805122911930084,145.74441528320312,0,0.011730976883982253
1720289262400,1720289270.0338078,52.80439437824034,-67.4207807697975,605.7552490234375,1.8458057641983032,0.47919753193855286,145.73953247070312,0,0.01268927308867068
1720289262500,1720289270.134012,52.80439437708915,-67.42078077191395,605.7552490234375,1.8442915678024292,0.48164209723472595,145.73712158203125,0,0.013379936409575133
1720289262600,1720289270.2339442,52.8043943755376,-67.42078077314467,605.7552490234375,1.8450454473495483,0.48450806736946106,145.73167419433594,0,0.013915058153204946
1720289262700,1720289270.3340108,52.80439437380698,-67.42078077496285,605.7552490234375,1.8482084274291992,0.48385781049728394,145.7317352294922,0,0.014167097409978397
1720289262800,1720289270.4339478,52.80439437188734,-67.42078077703756,605.7552490234375,1.844835638999939,0.484867662191391,145.73202514648438,0,0.015347395697762391
1720289262900,1720289270.5337532,52.80439436957675,-67.42078077948486,605.7552490234375,1.8422683477401733,0.4849869906902313,145.7334442138672,0,0.015250463461073168
1720289263000,1720289270.633773,52.804394367315055,-67.42078078082226,605.7552490234375,1.8422695398330688,0.486701637506485,145.73423767089844,0,0.01501963318456411
1720289263100,1720289270.733797,52.80439436537527,-67.42078078172176,605.7552490234375,1.8417232036590576,0.49025610089302063,145.73170471191406,0,0.014985294965056907
1720289263200,1720289270.833784,52.804394364404764,-67.42078078337333,605.7552490234375,1.842918872833252,0.4934469759464264,145.73081970214844,0,0.014814577630236843
1720289263300,1720289270.9339142,52.80439436427796,-67.42078078483031,605.7552490234375,1.8454831838607788,0.49725741147994995,145.7331085205078,0,0.014958237793109187
1720289263400,1720289271.034086,52.80439436434452,-67.42078078611422,605.7552490234375,1.8452885150909424,0.4955589473247528,145.73355102539062,0,0.014798368553848385
1720289263501,1720289271.134312,52.80439436466291,-67.42078078715491,605.7552490234375,1.841391682624817,0.4983818829059601,145.7322540283203,0,0.013543244889136179
1720289263601,1720289271.2344892,52.8043943655467,-67.420780787289,605.7552490234375,1.8476662635803223,0.5032092928886414,145.7317352294922,0,0.01302013998717741
1720289263700,1720289271.334048,52.80439436625587,-67.42078078754541,605.7552490234375,1.8460904359817505,0.49803435802459717,145.73342895507812,0,0.013330005379094161
1720289263800,1720289271.4339368,52.80439436755091,-67.42078078890474,605.7552490234375,1.844508409500122,0.5050766468048096,145.7392120361328,0,0.014055846970037604
1720289263900,1720289271.533907,52.804394368485944,-67.42078079122074,605.7552490234375,1.8471342325210571,0.5122163891792297,145.73971557617188,0,0.014437082833426918
1720289264002,1720289271.635556,52.8043943692868,-67.42078079368473,605.7552490234375,1.8449504375457764,0.5160728693008423,145.74267578125,0,0.014193386619207812
1720289264100,1720289271.733918,52.8043943705911,-67.4207807970176,605.7552490234375,1.8464220762252808,0.5129494667053223,145.74671936035156,0,0.01449621670943557
1720289264200,1720289271.833924,52.8043943729042,-67.4207808023577,605.7552490234375,1.8453079462051392,0.5108091235160828,145.745361328125,0,0.01570532214205822
1720289264300,1720289271.9338481,52.804394375745986,-67.42078080872473,605.7552490234375,1.846099615097046,0.5173865556716919,145.7460174560547,0,0.014933398100204519
1720289264400,1720289272.033752,52.80439437870996,-67.42078081437977,605.7552490234375,1.8445180654525757,0.5143157839775085,145.75123596191406,0,0.01488890902167422
1720289264500,1720289272.133805,52.80439438209148,-67.4207808210995,605.7552490234375,1.8399808406829834,0.5100118517875671,145.75221252441406,0,0.014804752894911354
1720289264600,1720289272.2339818,52.80439438562599,-67.4207808278902,605.7552490234375,1.8426947593688965,0.5108717679977417,145.74977111816406,0,0.015367465321638204
1720289264700,1720289272.333899,52.80439438882928,-67.4207808348698,605.7552490234375,1.8438628911972046,0.507360577583313,145.7503662109375,0,0.015668127562856182
1720289264800,1720289272.434069,52.80439439172173,-67.42078084079802,605.7552490234375,1.8458292484283447,0.5060243606567383,145.74676513671875,0,0.01703494055682869
1720289264900,1720289272.534176,52.80439439436021,-67.42078084541218,605.7552490234375,1.8456398248672485,0.5115982890129089,145.74639892578125,0,0.01754759984137615
1720289265000,1720289272.633735,52.804394396099305,-67.42078084765525,605.7552490234375,1.8456919193267822,0.505910336971283,145.74725341796875,0,0.016701777372840006
1720289265100,1720289272.733763,52.80439439737572,-67.42078084776459,605.7552490234375,1.8474628925323486,0.5014270544052124,145.74636840820312,0,0.016392138030220226
1720289265200,1720289272.833736,52.80439439896803,-67.42078084822002,605.7552490234375,1.8433330059051514,0.5009347796440125,145.74610900878906,0,0.017007953012498408
1720289265300,1720289272.933901,52.80439440090346,-67.42078084985174,605.7552490234375,1.845475673675537,0.5030732750892639,145.74525451660156,0,0.016809289009349103
1720289265400,1720289273.033921,52.80439440278199,-67.42078085237509,605.7552490234375,1.8453457355499268,0.5009879469871521,145.74349975585938,0,0.016835674370317067
1720289265500,1720289273.1337228,52.80439440459194,-67.42078085571069,605.7552490234375,1.8422002792358398,0.5002350807189941,145.7422332763672,0,0.016732196252202042
1720289265600,1720289273.2340841,52.804394406595925,-67.42078085864068,605.7552490234375,1.8412843942642212,0.5043438673019409,145.7418975830078,0,0.016152360943360304
1720289265700,1720289273.333716,52.80439440788789,-67.420780860032,605.7552490234375,1.8413208723068237,0.5057927370071411,145.74252319335938,0,0.01595966724777549
1720289265800,1720289273.433674,52.80439440841642,-67.4207808590362,605.7552490234375,1.8418482542037964,0.5044916868209839,145.74349975585938,0,0.01589225458194375
1720289265900,1720289273.533937,52.80439440942682,-67.42078085748642,605.7552490234375,1.8396073579788208,0.5035568475723267,145.73934936523438,0,0.016503054485693957
1720289266000,1720289273.6339352,52.804394410455046,-67.42078085594771,605.7552490234375,1.8351467847824097,0.5022086501121521,145.73646545410156,0,0.016763457777549787
1720289266100,1720289273.733852,52.80439441124391,-67.42078085368998,605.7552490234375,1.83441960811615,0.4996311664581299,145.73851013183594,0,0.01704356949664229
1720289266200,1720289273.8340402,52.80439441195011,-67.42078085125756,605.7552490234375,1.8328349590301514,0.4994899332523346,145.73692321777344,0,0.01716419216000314
1720289266300,1720289273.9341152,52.80439441265316,-67.42078084833692,605.7552490234375,1.8341425657272339,0.5041385889053345,145.7351837158203,0,0.017071908128191902
1720289266400,1720289274.0342689,52.804394413653725,-67.42078084517918,605.7552490234375,1.834944248199463,0.4995695948600769,145.7332763671875,0,0.01703737772338241
1720289266500,1720289274.133759,52.80439441494658,-67.42078084223095,605.7552490234375,1.836190938949585,0.5001629590988159,145.7322998046875,0,0.017042559840189247
1720289266600,1720289274.2337248,52.80439441564744,-67.42078083863781,605.7552490234375,1.8371001482009888,0.5023460388183594,145.7318572998047,0,0.01689953389394261
1720289266700,1720289274.33375,52.80439441609456,-67.42078083502025,605.7552490234375,1.8340846300125122,0.4993230104446411,145.729736328125,0,0.016501206043558744
1720289266800,1720289274.4337761,52.8043944161304,-67.42078083201665,605.7552490234375,1.832978367805481,0.4965536892414093,145.7294158935547,0,0.017135301050317072
1720289266900,1720289274.5336692,52.80439441585718,-67.42078083032817,605.7552490234375,1.831657886505127,0.49952930212020874,145.7275390625,0,0.017062781187868876
1720289267000,1720289274.6337652,52.804394415184674,-67.4207808281607,605.7552490234375,1.8331713676452637,0.49853748083114624,145.72772216796875,0,0.01633956489201449
1720289267100,1720289274.733726,52.80439441517642,-67.42078082540282,605.7552490234375,1.8368346691131592,0.49968406558036804,145.72967529296875,0,0.016451014197094483
1720289267200,1720289274.8338702,52.80439441555746,-67.42078082235282,605.7552490234375,1.8358131647109985,0.4998721480369568,145.73147583007812,0,0.016093720290097323
1720289267300,1720289274.9337,52.80439441585086,-67.42078082019304,605.7552490234375,1.835494041442871,0.4981265962123871,145.73179626464844,0,0.016040021335165102
1720289267400,1720289275.0337238,52.804394416384774,-67.42078082006286,605.7552490234375,1.8386263847351074,0.495354562997818,145.73483276367188,0,0.016135245169574482
1720289267500,1720289275.13369,52.80439441731656,-67.42078082089951,605.755615234375,1.8377829790115356,0.49766984581947327,145.74066162109375,0,0.0157942198353284
1720289267600,1720289275.2337558,52.804394417951805,-67.42078082201957,605.755615234375,1.8411675691604614,0.5007002353668213,145.74151611328125,0,0.015216862413345786
1720289267700,1720289275.3339388,52.804394418217534,-67.42078082355724,605.7561645507812,1.846047282218933,0.5013561844825745,145.7403106689453,0,0.015300801196559865
1720289267801,1720289275.434124,52.80439441877627,-67.42078082715129,605.7561645507812,1.8477753400802612,0.5045565962791443,145.74098205566406,0,0.016054891166783873
1720289267900,1720289275.533709,52.80439441894329,-67.4207808299391,605.7562866210938,1.8497514724731445,0.5064381957054138,145.73800659179688,0,0.015133454295359259
1720289268000,1720289275.633665,52.80439441851889,-67.42078083034906,605.7562866210938,1.850439190864563,0.505395770072937,145.7389373779297,0,0.015627822522040456
1720289268100,1720289275.733687,52.804394418345844,-67.42078083087956,605.7562866210938,1.850496768951416,0.5058504939079285,145.7400665283203,0,0.01619696160868915
1720289268200,1720289275.833714,52.80439441871682,-67.42078083150764,605.7562866210938,1.8488223552703857,0.5108792185783386,145.73202514648438,0,0.016209327146080813
1720289268300,1720289275.933737,52.80439441840524,-67.42078083109195,605.7562866210938,1.8461073637008667,0.516630232334137,145.73214721679688,0,0.016328735722518334
1720289268400,1720289276.033674,52.8043944182485,-67.4207808303685,605.7562866210938,1.8475136756896973,0.5061983466148376,145.73684692382812,0,0.01657028890817301
1720289268500,1720289276.13369,52.80439441810058,-67.42078083015608,605.7562866210938,1.8520692586898804,0.5092724561691284,145.73521423339844,0,0.016935240635688558
1720289268600,1720289276.233761,52.80439441788184,-67.4207808294149,605.7562866210938,1.8501044511795044,0.5144744515419006,145.73251342773438,0,0.016982583891066515
1720289268700,1720289276.3338308,52.804394418090105,-67.42078082826865,605.7562866210938,1.8520374298095703,0.5079611539840698,145.73191833496094,0,0.01706732676805108
1720289268800,1720289276.4337459,52.80439441844294,-67.42078082825603,605.7562866210938,1.8544448614120483,0.5108929872512817,145.73260498046875,0,0.01724265027476774
1720289268900,1720289276.533813,52.8043944199903,-67.42078083015264,605.7562866210938,1.8560479879379272,0.520515501499176,145.7339630126953,0,0.018352730537219922
1720289269000,1720289276.633695,52.80439442237915,-67.42078083314539,605.7562866210938,1.8582381010055542,0.520961344242096,145.73580932617188,0,0.019107244140250747
1720289269100,1720289276.7339468,52.80439442632839,-67.42078083684459,605.7562866210938,1.858944058418274,0.5130017399787903,145.73504638671875,0,0.019650305290062498
1720289269200,1720289276.8341608,52.804394431392126,-67.42078084076626,605.7562866210938,1.8616863489151,0.5128750205039978,145.73289489746094,0,0.020513264385601696
1720289269300,1720289276.93372,52.80439443555976,-67.42078084369045,605.755615234375,1.8607910871505737,0.5117227435112,145.7352752685547,0,0.020604188216026737
1720289269400,1720289277.033671,52.80439443949058,-67.4207808453129,605.7532958984375,1.862179160118103,0.5083841681480408,145.73838806152344,0,0.020460937045205123
1720289269500,1720289277.133651,52.804394443969144,-67.4207808470033,605.75146484375,1.8613183498382568,0.5098798871040344,145.73776245117188,0,0.02033495387998281
1720289269601,1720289277.234792,52.804394448687425,-67.42078084839878,605.7490844726562,1.8573440313339233,0.5147171020507812,145.73948669433594,0,0.020172220524610797
1720289269700,1720289277.3336692,52.804394453523344,-67.42078084939574,605.7472534179688,1.858198642730713,0.5112491846084595,145.74331665039062,0,0.0209571940083718
1720289269800,1720289277.434007,52.804394459100784,-67.42078085232605,605.7449340820312,1.8561370372772217,0.5105075240135193,145.7444305419922,0,0.02125770277676794
1720289269900,1720289277.53365,52.80439446324284,-67.42078085467224,605.7445678710938,1.8541865348815918,0.5144108533859253,145.7499542236328,0,0.020772423780754844
1720289270000,1720289277.633652,52.80439446373805,-67.42078085505524,605.7423706054688,1.8577806949615479,0.5079395771026611,145.75393676757812,0,0.0197528916509881
1720289270103,1720289277.736502,52.80439446280215,-67.4207808535758,605.7407836914062,1.854171872138977,0.5002303123474121,145.75938415527344,0,0.019789767659368632
1720289270200,1720289277.833668,52.804394461038335,-67.42078085124791,605.7398681640625,1.8541646003723145,0.5046522617340088,145.75848388671875,0,0.019357982035644403
1720289270300,1720289277.9335968,52.80439445830723,-67.42078084922223,605.7398681640625,1.8507176637649536,0.504737377166748,145.75955200195312,0,0.018963058571221932
1720289270400,1720289278.033788,52.80439445546772,-67.42078084736711,605.7398681640625,1.8540061712265015,0.5032766461372375,145.76446533203125,0,0.018263868288225012
1720289270500,1720289278.133746,52.80439445261072,-67.42078084680094,605.7398681640625,1.8569999933242798,0.5063120722770691,145.766845703125,0,0.017934707344503812
1720289270601,1720289278.233963,52.80439444967812,-67.42078084714568,605.7413330078125,1.8572810888290405,0.5106645226478577,145.7715301513672,0,0.017431523302620912
1720289270700,1720289278.3336089,52.80439444611413,-67.4207808483943,605.7420043945312,1.854326844215393,0.5138372778892517,145.77293395996094,0,0.017262011064729646
1720289270800,1720289278.433674,52.8043944430227,-67.42078085111581,605.7420043945312,1.8541789054870605,0.5157443284988403,145.77139282226562,0,0.01790334409939827
1720289270900,1720289278.5336142,52.80439443966495,-67.42078085444052,605.7427978515625,1.8573170900344849,0.5166030526161194,145.7676544189453,0,0.018323144311403854
1720289271000,1720289278.633725,52.80439443511217,-67.42078085651262,605.7427978515625,1.858001708984375,0.5137519240379333,145.7666473388672,0,0.018829048512305283
1720289271100,1720289278.7337139,52.8043944302456,-67.42078085774948,605.7437133789062,1.8575975894927979,0.5112914443016052,145.76840209960938,0,0.018284619837265394
1720289271201,1720289278.833662,52.80439442491507,-67.42078085844041,605.7437133789062,1.8579866886138916,0.5140222311019897,145.76828002929688,0,0.01910063218789973
1720289271300,1720289278.9336362,52.804394419530006,-67.42078085849465,605.7437133789062,1.8519302606582642,0.518753170967102,145.7702178955078,0,0.01866705947558633
1720289271400,1720289279.033629,52.804394414455665,-67.42078085680247,605.7437133789062,1.854496717453003,0.5184270739555359,145.77090454101562,0,0.018182970785363267
1720289271500,1720289279.1336708,52.80439441004132,-67.42078085456383,605.7437133789062,1.8545540571212769,0.5141354203224182,145.77227783203125,0,0.018726540085899104
1720289271600,1720289279.2337,52.804394405964416,-67.42078085244027,605.7437133789062,1.8539897203445435,0.5102462768554688,145.77191162109375,0,0.018544032790523465
1720289271700,1720289279.3337228,52.80439440187889,-67.42078085199435,605.7437133789062,1.8512858152389526,0.5136121511459351,145.76895141601562,0,0.018473879003172936
1720289271800,1720289279.43363,52.80439439746429,-67.42078085312681,605.7437133789062,1.851314663887024,0.5088146328926086,145.77154541015625,0,0.01838095111084216
1720289271900,1720289279.5336971,52.80439439357429,-67.42078085505649,605.7439575195312,1.8516594171524048,0.5055309534072876,145.76910400390625,0,0.01867170016741312
1720289272000,1720289279.633879,52.80439438962999,-67.42078085936136,605.7439575195312,1.8490281105041504,0.5068928599357605,145.7642822265625,0,0.019288295275561466
1720289272100,1720289279.734146,52.8043943860186,-67.42078086211977,605.7446899414062,1.8499046564102173,0.5081059336662292,145.7667236328125,0,0.018071531105241567
1720289272200,1720289279.833627,52.80439438273326,-67.4207808620056,605.7446899414062,1.8491512537002563,0.5112618207931519,145.76980590820312,0,0.018252120666265373
1720289272300,1720289279.933703,52.804394379364886,-67.42078086116298,605.7446899414062,1.840944528579712,0.5074841380119324,145.7718048095703,0,0.0180002798812801
1720289272400,1720289280.0336158,52.80439437641005,-67.42078085952467,605.7446899414062,1.8389849662780762,0.511766254901886,145.77650451660156,0,0.018475570830946118
1720289272500,1720289280.133591,52.804394373686314,-67.4207808579856,605.7446899414062,1.8317699432373047,0.5135805606842041,145.780029296875,0,0.018180325519314335
1720289272600,1720289280.233622,52.80439437175879,-67.42078085346336,605.7446899414062,1.8346607685089111,0.5153281092643738,145.7800750732422,0,0.01751275216600169
1720289272700,1720289280.333638,52.80439436980293,-67.42078084963336,605.7446899414062,1.8339533805847168,0.5184082388877869,145.78021240234375,0,0.01869449778938366
1720289272800,1720289280.433704,52.80439436799145,-67.42078084574197,605.7446899414062,1.8309767246246338,0.5226280689239502,145.77822875976562,0,0.017825358855297048
1720289272900,1720289280.533679,52.80439436698588,-67.42078084186065,605.7449951171875,1.8315385580062866,0.5250547528266907,145.7771453857422,0,0.017985877235845753
1720289273000,1720289280.633673,52.804394366712884,-67.42078083852317,605.7449951171875,1.8299639225006104,0.5274137854576111,145.7793731689453,0,0.017523734835747075
1720289273100,1720289280.733584,52.804394366758444,-67.4207808347335,605.7450561523438,1.831590175628662,0.5305278897285461,145.78114318847656,0,0.017275158563336987
1720289273200,1720289280.833565,52.80439436690196,-67.4207808315471,605.7450561523438,1.8331854343414307,0.5301050543785095,145.7831573486328,0,0.017949332908914165
1720289273300,1720289280.9337442,52.80439436713361,-67.42078082937827,605.7450561523438,1.8339141607284546,0.5364344716072083,145.78121948242188,0,0.018181125290771562
1720289273400,1720289281.033831,52.804394367605695,-67.42078082774911,605.7450561523438,1.8369745016098022,0.5360063314437866,145.77688598632812,0,0.01804833701678706
1720289273500,1720289281.1339982,52.804394367590156,-67.42078082857816,605.7450561523438,1.8349545001983643,0.5335919260978699,145.77684020996094,0,0.017699388947366057
1720289273600,1720289281.234169,52.80439436805586,-67.42078083011074,605.7450561523438,1.8385924100875854,0.5335262417793274,145.7744903564453,0,0.017874993376131507
1720289273700,1720289281.333654,52.804394368865886,-67.42078083313503,605.7450561523438,1.8381915092468262,0.5414387583732605,145.77439880371094,0,0.018289915057150666
1720289273800,1720289281.433645,52.804394369912025,-67.42078083732449,605.7450561523438,1.839707374572754,0.5387116074562073,145.77516174316406,0,0.0180646361680401
1720289273900,1720289281.533705,52.804394371602115,-67.4207808430028,605.7450561523438,1.8399161100387573,0.5373658537864685,145.77835083007812,0,0.019103372849622526
1720289274000,1720289281.633683,52.804394373393286,-67.42078085028113,605.7450561523438,1.8369431495666504,0.5442249774932861,145.78036499023438,0,0.019089120164591824
1720289274100,1720289281.7337868,52.8043943752967,-67.42078085757298,605.7450561523438,1.842550277709961,0.5441567301750183,145.78262329101562,0,0.019356950972537174
1720289274200,1720289281.833621,52.8043943768654,-67.42078086516817,605.7450561523438,1.841156005859375,0.545422375202179,145.78514099121094,0,0.01962107066110233
1720289274300,1720289281.933741,52.80439437834932,-67.42078086946393,605.7451171875,1.840035319328308,0.546640157699585,145.78587341308594,0,0.019633554585168186
1720289274400,1720289282.033661,52.80439437934426,-67.42078087191493,605.7454833984375,1.8458752632141113,0.5442747473716736,145.78848266601562,0,0.020933699064109152
1720289274500,1720289282.133554,52.80439438064834,-67.42078087399005,605.7454833984375,1.8393189907073975,0.5459641814231873,145.79115295410156,0,0.02062426114963278
1720289274600,1720289282.2336168,52.804394382719266,-67.42078087462879,605.7454833984375,1.8392804861068726,0.5501857399940491,145.79104614257812,0,0.02162142986313927
1720289274700,1720289282.333695,52.8043943847212,-67.42078087544317,605.7454833984375,1.8357532024383545,0.5529384016990662,145.790771484375,0,0.021685248833224022
1720289274800,1720289282.433941,52.804394387025155,-67.42078087456544,605.7454833984375,1.8355993032455444,0.5507989525794983,145.79466247558594,0,0.021353019499035737
1720289274906,1720289282.5338728,52.80439439004162,-67.42078087468897,605.7454833984375,1.8369934558868408,0.5541433095932007,145.79702758789062,0,0.02217302061095937
1720289275001,1720289282.634082,52.80439439411187,-67.42078087646235,605.7454833984375,1.8377727270126343,0.5583094954490662,145.79202270507812,0,0.02187486419401193
1720289275100,1720289282.7335172,52.804394398548354,-67.42078087948053,605.7454833984375,1.8350812196731567,0.5610628724098206,145.79263305664062,0,0.02243623393783074
1720289275200,1720289282.833569,52.80439440346307,-67.42078088536331,605.7454833984375,1.8330302238464355,0.5610997080802917,145.7881317138672,0,0.023417523489475695
1720289275300,1720289282.933689,52.804394408612914,-67.42078089158836,605.7454833984375,1.8340808153152466,0.5624841451644897,145.78878784179688,0,0.023479642267703382
1720289275400,1720289283.0336971,52.804394413848236,-67.42078089741581,605.7454833984375,1.834813117980957,0.564315915107727,145.78549194335938,0,0.02398571207376666
1720289275500,1720289283.133615,52.80439441919742,-67.42078090509843,605.7454833984375,1.8341741561889648,0.5662118196487427,145.78353881835938,0,0.0241418086852903
1720289275600,1720289283.233572,52.804394424807036,-67.42078091258085,605.7454833984375,1.8372421264648438,0.5647920966148376,145.7790985107422,0,0.02446572269115813
1720289275700,1720289283.3337102,52.80439443055459,-67.420780920248,605.7454833984375,1.8360223770141602,0.5681719779968262,145.7763214111328,0,0.02507245307865216
1720289275800,1720289283.433681,52.804394436987565,-67.42078092814809,605.7454833984375,1.839613676071167,0.5713649988174438,145.78018188476562,0,0.02620871872674223
1720289275900,1720289283.53358,52.804394443104634,-67.42078093581522,605.7454833984375,1.8396327495574951,0.5720083713531494,145.7812957763672,0,0.02690071772914596
1720289276000,1720289283.633588,52.80439444934107,-67.42078094343378,605.7454833984375,1.8375428915023804,0.5757569670677185,145.7760772705078,0,0.028182774229773208
1720289276100,1720289283.733591,52.804394455135714,-67.42078095086278,605.7454833984375,1.8374348878860474,0.5776012539863586,145.7727508544922,0,0.0285229332153091
1720289276200,1720289283.8337212,52.80439445907495,-67.42078095413589,605.7454833984375,1.8349862098693848,0.5769936442375183,145.77154541015625,0,0.029714217804425704
1720289276300,1720289283.933852,52.804394462509364,-67.42078095561028,605.7454833984375,1.8406963348388672,0.5685001015663147,145.77415466308594,0,0.029732640149429515
1720289276400,1720289284.034024,52.804394466759554,-67.42078095816379,605.7454833984375,1.8355474472045898,0.5691298842430115,145.78004455566406,0,0.0303353591424016
1720289276500,1720289284.1335418,52.80439447162621,-67.42078096257,605.7454833984375,1.8334035873413086,0.5660157203674316,145.77635192871094,0,0.030410490910987527
1720289276600,1720289284.233526,52.804394476161576,-67.42078096642511,605.7454833984375,1.8393853902816772,0.5644020438194275,145.77676391601562,0,0.03152187618657278
1720289276700,1720289284.3335779,52.804394481462296,-67.42078097116375,605.7454833984375,1.8392620086669922,0.5648021101951599,145.7737579345703,0,0.03272291946659261
1720289276800,1720289284.433557,52.8043944862415,-67.42078097407538,605.7454833984375,1.836761236190796,0.567912757396698,145.770751953125,0,0.03234703251707505
1720289276900,1720289284.533612,52.80439448954433,-67.42078097317719,605.7454833984375,1.8389966487884521,0.5609534978866577,145.77029418945312,0,0.03335023082898231
1720289277000,1720289284.6336331,52.804394491777,-67.42078096943558,605.7454833984375,1.8376238346099854,0.5571302175521851,145.76779174804688,0,0.03353611061016839
1720289277100,1720289284.7335758,52.804394493220336,-67.42078096472,605.7454833984375,1.8344758749008179,0.5572995543479919,145.76516723632812,0,0.0335349727410419
1720289277200,1720289284.833642,52.80439449306015,-67.42078095871496,605.7454833984375,1.8311876058578491,0.5553372502326965,145.76287841796875,0,0.032803945701196914
1720289277300,1720289284.93358,52.80439449224922,-67.42078095119638,605.7454833984375,1.831482172012329,0.5540878772735596,145.7643280029297,0,0.03187542567432229
1720289277400,1720289285.03355,52.804394490935735,-67.42078094303808,605.7454833984375,1.8342878818511963,0.5525395274162292,145.76181030273438,0,0.03109987465671245
1720289277500,1720289285.1336021,52.80439448934111,-67.42078093467927,605.7454833984375,1.8330823183059692,0.5506641864776611,145.76565551757812,0,0.030903140874762175
1720289277600,1720289285.2336462,52.80439448735451,-67.4207809262339,605.7454833984375,1.8331421613693237,0.5500779151916504,145.76565551757812,0,0.030825222814055434
1720289277700,1720289285.333845,52.804394485523304,-67.42078091869035,605.7454833984375,1.830203890800476,0.5501571893692017,145.7660369873047,0,0.03102115849955837
1720289277801,1720289285.434027,52.80439448379416,-67.42078091128923,605.7454833984375,1.8311306238174438,0.5517025589942932,145.76589965820312,0,0.03045153138253031
1720289277900,1720289285.5335958,52.80439448225781,-67.42078090481641,605.7454833984375,1.8314499855041504,0.5520500540733337,145.76759338378906,0,0.0305154412933138
1720289278000,1720289285.633569,52.80439448138334,-67.42078089861329,605.7454833984375,1.83125638961792,0.549405038356781,145.768310546875,0,0.03079169901446928
1720289278100,1720289285.733597,52.80439448019415,-67.42078089341075,605.7454833984375,1.8276700973510742,0.5549021363258362,145.77053833007812,0,0.03027124326501433
1720289278200,1720289285.833597,52.80439447813477,-67.4207808882583,605.7454833984375,1.8303462266921997,0.5524181127548218,145.77597045898438,0,0.028870895982367775
1720289278300,1720289285.933606,52.80439447590459,-67.4207808834873,605.7454833984375,1.8326729536056519,0.5500401258468628,145.77560424804688,0,0.028446509251017556
1720289278400,1720289286.0335722,52.80439447423201,-67.42078087862564,605.7454833984375,1.8311867713928223,0.5482668280601501,145.78018188476562,0,0.028089071520323722
1720289278500,1720289286.1335309,52.80439447269077,-67.42078087500758,605.7454833984375,1.8349286317825317,0.5477441549301147,145.78240966796875,0,0.02744091879720059
1720289278600,1720289286.2336,52.804394470451186,-67.42078087071818,605.7454833984375,1.8372479677200317,0.5437136292457581,145.7770233154297,0,0.02722343481820965
1720289278700,1720289286.333635,52.80439446853342,-67.42078086699117,605.7454833984375,1.838691234588623,0.5439608693122864,145.77906799316406,0,0.02711249246520649
1720289278800,1720289286.433573,52.804394467035316,-67.4207808638993,605.7454833984375,1.8405213356018066,0.5442897081375122,145.77671813964844,0,0.02717426555766093
1720289278900,1720289286.533608,52.80439446595997,-67.42078086175617,605.7454833984375,1.8381221294403076,0.5382558107376099,145.7808837890625,0,0.027528280552394983
1720289279006,1720289286.633722,52.80439446536293,-67.42078086088425,605.7454833984375,1.8372952938079834,0.5352432131767273,145.78016662597656,0,0.028219199742292436
1720289279100,1720289286.7338371,52.80439446563832,-67.42078086015513,605.7454833984375,1.8394291400909424,0.5366981029510498,145.77513122558594,0,0.027951122548421987
1720289279200,1720289286.833987,52.80439446561992,-67.4207808593126,605.7454833984375,1.8411673307418823,0.5332975387573242,145.772216796875,0,0.027270890583556227
1720289279301,1720289286.934101,52.8043944654399,-67.42078085795467,605.7454833984375,1.8401364088058472,0.5302371382713318,145.76675415039062,0,0.026788853222101543
1720289279400,1720289287.0335171,52.8043944648651,-67.42078085681393,605.7454833984375,1.8404979705810547,0.5277419090270996,145.76876831054688,0,0.026532428635529057
1720289279500,1720289287.1336262,52.80439446418222,-67.42078085533664,605.7454833984375,1.8424314260482788,0.5270816087722778,145.77183532714844,0,0.02517452668580686
1720289279600,1720289287.233661,52.80439446233454,-67.42078085320429,605.7454833984375,1.842861294746399,0.5229734778404236,145.7735595703125,0,0.024736519212144023
1720289279700,1720289287.3335629,52.8043944610059,-67.4207808510508,605.7454833984375,1.8409178256988525,0.524085283279419,145.771240234375,0,0.02411785294638797
1720289279800,1720289287.4335349,52.80439445954528,-67.42078084956896,605.7454833984375,1.8373266458511353,0.5207713842391968,145.76661682128906,0,0.023292994126186507
1720289279900,1720289287.533524,52.804394457909154,-67.42078084820169,605.7454833984375,1.835819125175476,0.5220010280609131,145.7662353515625,0,0.023024945158113302
1720289280000,1720289287.633478,52.804394455634,-67.42078084608796,605.7454833984375,1.8382517099380493,0.5230055451393127,145.765380859375,0,0.022462247270526113
1720289280100,1720289287.733496,52.804394453548525,-67.42078084436018,605.7454833984375,1.8370352983474731,0.525471031665802,145.76121520996094,0,0.022146231676469688
1720289280200,1720289287.8335202,52.80439445171748,-67.42078084175222,605.7454833984375,1.8380699157714844,0.5263059139251709,145.7630157470703,0,0.021037076419655566
1720289280300,1720289287.933574,52.80439444902996,-67.42078083987111,605.7454833984375,1.8374568223953247,0.5238677859306335,145.7681884765625,0,0.020351476914692673
1720289280400,1720289288.033539,52.804394445959275,-67.42078083819989,605.7454833984375,1.8413541316986084,0.5240104794502258,145.77110290527344,0,0.019468111118677467
1720289280500,1720289288.13373,52.80439444346038,-67.42078083607856,605.7454833984375,1.8430171012878418,0.530413806438446,145.7730255126953,0,0.019157554942953577
1720289280600,1720289288.233833,52.80439444082284,-67.42078083395712,605.7454833984375,1.8410141468048096,0.5315147042274475,145.77333068847656,0,0.018319968678816106
1720289280700,1720289288.333986,52.80439443910497,-67.42078083357443,605.7454833984375,1.8432800769805908,0.52543705701828,145.77452087402344,0,0.019234910753491766
1720289280800,1720289288.433537,52.80439443835729,-67.42078083531041,605.7454833984375,1.8413403034210205,0.5278913378715515,145.77529907226562,0,0.019481058289856173
1720289280900,1720289288.533514,52.80439443857076,-67.42078083798964,605.7454833984375,1.840028166770935,0.53354412317276,145.775390625,0,0.018896322108337065
1720289281000,1720289288.633815,52.804394439106396,-67.42078084088907,605.7454833984375,1.841856837272644,0.5305460095405579,145.77503967285156,0,0.018919590125780757
1720289281100,1720289288.733526,52.80439443977242,-67.42078084470582,605.7454833984375,1.8381158113479614,0.5274003744125366,145.77516174316406,0,0.018959749349140412
1720289281200,1720289288.8335512,52.80439444010644,-67.42078084597937,605.7454833984375,1.8444209098815918,0.5276038646697998,145.7732696533203,0,0.0189425968617242
1720289281300,1720289288.933584,52.80439443981359,-67.42078084675053,605.7454833984375,1.8407936096191406,0.5306009650230408,145.77037048339844,0,0.01894608331230323
1720289281400,1720289289.033524,52.804394439883346,-67.42078084653775,605.7454833984375,1.841206431388855,0.5299332737922668,145.7698211669922,0,0.019241224156698888
1720289281500,1720289289.133569,52.804394440557225,-67.4207808489148,605.7454833984375,1.8432903289794922,0.5299230217933655,145.77198791503906,0,0.019484371436638996
1720289281600,1720289289.2335942,52.80439444099974,-67.42078085210035,605.7454833984375,1.8415366411209106,0.5329235792160034,145.77310180664062,0,0.018975679231080244
1720289281700,1720289289.333569,52.80439444175429,-67.42078085626744,605.7454833984375,1.8456416130065918,0.5319135785102844,145.77731323242188,0,0.01937079452451346
1720289281800,1720289289.4335308,52.804394442046174,-67.42078086218228,605.7454833984375,1.8431192636489868,0.5363377928733826,145.77545166015625,0,0.018806094430744873
1720289281900,1720289289.533581,52.8043944432316,-67.42078086782288,605.7454833984375,1.8471999168395996,0.5396519303321838,145.77671813964844,0,0.0194521230345261
1720289282000,1720289289.633845,52.80439444486704,-67.42078087353921,605.7454833984375,1.8471097946166992,0.5412532687187195,145.77566528320312,0,0.020158298405971754
1720289282101,1720289289.734016,52.80439444594802,-67.42078087767239,605.7454833984375,1.8454691171646118,0.5388918519020081,145.77719116210938,0,0.01982909798335321
1720289282200,1720289289.83355,52.80439444628562,-67.42078087942127,605.7454833984375,1.8413093090057373,0.5382834672927856,145.775634765625,0,0.02057809082312169
1720289282300,1720289289.9335191,52.80439444678839,-67.42078088038635,605.7454833984375,1.8347212076187134,0.5373966097831726,145.773681640625,0,0.021263633955747773
1720289282400,1720289290.033528,52.80439444755452,-67.42078087859441,605.7454833984375,1.8361763954162598,0.5380271077156067,145.76934814453125,0,0.02139310678236708
1720289282500,1720289290.133502,52.80439444810865,-67.4207808776064,605.7454833984375,1.8336026668548584,0.5358098745346069,145.76959228515625,0,0.02177402765347595
1720289282600,1720289290.233527,52.80439444773495,-67.420780875164,605.7454833984375,1.8343749046325684,0.5385054349899292,145.76263427734375,0,0.021648370671272947
1720289282700,1720289290.333583,52.80439444701549,-67.42078087240711,605.7454833984375,1.8366289138793945,0.5366244316101074,145.76138305664062,0,0.021032327592109244
1720289282805,1720289290.438071,52.804394446048654,-67.42078086874527,605.7454833984375,1.8350554704666138,0.5295842289924622,145.76512145996094,0,0.021287989546429638
1720289282900,1720289290.53348,52.80439444598337,-67.42078086507924,605.7454833984375,1.8374583721160889,0.5311442613601685,145.76058959960938,0,0.02126263684929185
1720289283002,1720289290.6334999,52.80439444554625,-67.4207808613758,605.7454833984375,1.8381695747375488,0.5364202857017517,145.75918579101562,0,0.02091401309173121
1720289283100,1720289290.7335339,52.80439444525532,-67.42078085696811,605.7454833984375,1.8419498205184937,0.5357491374015808,145.75958251953125,0,0.02093634560449729
1720289283200,1720289290.833528,52.804394444762735,-67.42078085374914,605.7454833984375,1.8445485830307007,0.5395196080207825,145.7584228515625,0,0.021050882943233568
1720289283300,1720289290.933593,52.804394443666055,-67.42078085200812,605.7454833984375,1.8473491668701172,0.5362358093261719,145.764892578125,0,0.021235598712952868
1720289283400,1720289291.0338078,52.80439444262694,-67.42078085075373,605.7454833984375,1.8499191999435425,0.535990297794342,145.77561950683594,0,0.021647538810957788
1720289283501,1720289291.134016,52.80439444170214,-67.42078085048709,605.7454833984375,1.8447370529174805,0.5442990660667419,145.77708435058594,0,0.021775078850185803
1720289283601,1720289291.234105,52.80439444054068,-67.4207808488858,605.7454833984375,1.8474116325378418,0.5394274592399597,145.7790985107422,0,0.021673980632162925
1720289283700,1720289291.333518,52.804394439920024,-67.42078084909784,605.7454833984375,1.8460355997085571,0.5363103151321411,145.78099060058594,0,0.02353879956695481
1720289283800,1720289291.433524,52.80439444058146,-67.4207808508328,605.7454833984375,1.8467768430709839,0.5500357747077942,145.7774200439453,0,0.022614050869463265
1720289283900,1720289291.5335271,52.804394440881254,-67.42078085318529,605.7456665039062,1.8477363586425781,0.548152506351471,145.7855987548828,0,0.022266296276131938
1720289284000,1720289291.633504,52.80439444124587,-67.42078085696386,605.7456665039062,1.8492393493652344,0.5403223633766174,145.79779052734375,0,0.023142855682503564
1720289284100,1720289291.733614,52.8043944436978,-67.42078086205159,605.7460327148438,1.8484535217285156,0.5494793057441711,145.79820251464844,0,0.02345006395855908
1720289284200,1720289291.833455,52.80439444567637,-67.42078086872478,605.7460327148438,1.8441241979599,0.5612578988075256,145.79721069335938,0,0.022575792988645257
1720289284300,1720289291.933523,52.804394447727724,-67.42078087548953,605.74658203125,1.8451532125473022,0.5514019131660461,145.80055236816406,0,0.022310627588554587
1720289284400,1720289292.033447,52.804394450628344,-67.42078088319712,605.74658203125,1.8507112264633179,0.5530526041984558,145.80601501464844,0,0.024356758996530857
1720289284500,1720289292.1335092,52.80439445384308,-67.4207808930905,605.7470092773438,1.846820592880249,0.5634928941726685,145.806884765625,0,0.023684340138534196
1720289284600,1720289292.233608,52.80439445550592,-67.42078089999166,605.7472534179688,1.8504462242126465,0.5597087144851685,145.8111114501953,0,0.023816142183193167
1720289284700,1720289292.333497,52.80439445727343,-67.42078090872876,605.7478637695312,1.8445963859558105,0.558201789855957,145.81658935546875,0,0.02494578505069941
1720289284800,1720289292.433623,52.80439445897401,-67.42078091682872,605.7478637695312,1.8425378799438477,0.5645401477813721,145.8148956298828,0,0.024905523217248152
1720289284900,1720289292.533782,52.80439446119037,-67.4207809258611,605.7478637695312,1.843813419342041,0.5690242052078247,145.81436157226562,0,0.02504378000910328
1720289285001,1720289292.6340008,52.80439446373284,-67.42078093495319,605.7478637695312,1.8420337438583374,0.5641657710075378,145.8177947998047,0,0.025854727855336494
1720289285100,1720289292.733519,52.80439446729942,-67.42078094347553,605.7478637695312,1.8479785919189453,0.5740312933921814,145.81922912597656,0,0.026436299331374733
1720289285200,1720289292.833487,52.80439446943535,-67.42078094740107,605.7478637695312,1.848587989807129,0.5797426104545593,145.8198699951172,0,0.02674532319894417
1720289285300,1720289292.933444,52.80439447070896,-67.42078094833123,605.7478637695312,1.8495657444000244,0.5739172697067261,145.8247528076172,0,0.027141793096371068
1720289285400,1720289293.033473,52.80439447155203,-67.42078094746816,605.7478637695312,1.850263237953186,0.565687894821167,145.82383728027344,0,0.02813226704753782
1720289285500,1720289293.1334772,52.80439447215063,-67.42078094579385,605.7481689453125,1.848517894744873,0.5762441158294678,145.82168579101562,0,0.02826436851199237
1720289285600,1720289293.2335,52.80439447128902,-67.4207809410507,605.7481689453125,1.8523496389389038,0.5758944153785706,145.8234100341797,0,0.027971301391235163
1720289285700,1720289293.333469,52.804394469539986,-67.42078093729714,605.7481689453125,1.8481800556182861,0.570221483707428,145.83030700683594,0,0.028769348078284296
1720289285800,1720289293.433506,52.80439446822163,-67.42078093313953,605.7481689453125,1.8495100736618042,0.5746756196022034,145.82997131347656,0,0.02896744327638735
1720289285900,1720289293.533498,52.80439446687941,-67.42078093017703,605.7481689453125,1.8517496585845947,0.5859896540641785,145.82864379882812,0,0.02994938327026187
1720289286000,1720289293.6335301,52.80439446498357,-67.42078092719413,605.7481689453125,1.847443699836731,0.5776992440223694,145.83197021484375,0,0.029362488127463726
1720289286100,1720289293.733491,52.80439446372618,-67.42078092404657,605.7481689453125,1.8523530960083008,0.5664730668067932,145.83387756347656,0,0.029773007924962392
1720289286200,1720289293.833599,52.80439446272018,-67.42078092125385,605.7481689453125,1.8475501537322998,0.5784978866577148,145.82806396484375,0,0.02951203495400043
1720289286300,1720289293.9339252,52.80439446230243,-67.42078091875938,605.7481689453125,1.8498849868774414,0.5773445963859558,145.82791137695312,0,0.02844221416872502
1720289286400,1720289294.0339699,52.80439446218787,-67.42078091827142,605.7481689453125,1.8485928773880005,0.5667764544487,145.83828735351562,0,0.029147086777522032
1720289286500,1720289294.13342,52.80439446423423,-67.4207809204408,605.7481689453125,1.8483812808990479,0.5755286812782288,145.83958435058594,0,0.02949274695271843
1720289286600,1720289294.233484,52.804394467057676,-67.42078092303508,605.7481689453125,1.8560055494308472,0.5845341682434082,145.8420867919922,0,0.029292740911787223
1720289286700,1720289294.3335261,52.804394469933236,-67.42078092742763,605.7481689453125,1.853136658668518,0.5695549249649048,145.8494110107422,0,0.029887231986223155
1720289286800,1720289294.433496,52.804394475063745,-67.42078093360067,605.7481689453125,1.8597854375839233,0.5749512314796448,145.8511199951172,0,0.032871331070377555
1720289286900,1720289294.5334778,52.80439448120099,-67.4207809430139,605.7481689453125,1.85677969455719,0.5895301103591919,145.84811401367188,0,0.033210433624665144
1720289287000,1720289294.6334789,52.804394487345874,-67.42078095092732,605.7481689453125,1.8595716953277588,0.5848726034164429,145.85203552246094,0,0.0329004530674137
1720289287100,1720289294.733382,52.80439449365262,-67.42078096059818,605.7481689453125,1.861829161643982,0.5763537287712097,145.85589599609375,0,0.034372237438033415
1720289287200,1720289294.8333938,52.80439450032261,-67.4207809718158,605.7481689453125,1.8640941381454468,0.5888798832893372,145.8538055419922,0,0.03560651783655591
1720289287300,1720289294.933389,52.804394507795436,-67.42078098305262,605.7481689453125,1.869912028312683,0.5874556303024292,145.85153198242188,0,0.0356470931387179
1720289287400,1720289295.0334709,52.80439451454014,-67.42078099440452,605.7481689453125,1.8699185848236084,0.5875624418258667,145.8519744873047,0,0.03691861621612468
1720289287500,1720289295.133473,52.80439452092612,-67.4207810039813,605.7481689453125,1.8758023977279663,0.598305344581604,145.84939575195312,0,0.03800176419052348
1720289287600,1720289295.23357,52.80439452523745,-67.42078101119702,605.7481689453125,1.8743245601654053,0.6008920073509216,145.8474578857422,0,0.03843668228129083
1720289287700,1720289295.333685,52.804394529144496,-67.42078102028694,605.7481689453125,1.8714079856872559,0.5906965732574463,145.85304260253906,0,0.03845177174607012
1720289287800,1720289295.433908,52.80439453314249,-67.42078102934822,605.7481689453125,1.8731368780136108,0.5876781940460205,145.85186767578125,0,0.0398672134269442
1720289287900,1720289295.533495,52.80439453834953,-67.42078104210269,605.7481689453125,1.872254729270935,0.5957584977149963,145.84869384765625,0,0.04066124920709035
1720289288000,1720289295.633482,52.80439454247509,-67.42078104927981,605.7481689453125,1.8708120584487915,0.5928575396537781,145.8509063720703,0,0.039974827910811486
1720289288100,1720289295.733446,52.80439454513325,-67.42078105433097,605.7481689453125,1.8690648078918457,0.587181568145752,145.85304260253906,0,0.04014785750032381
1720289288200,1720289295.8334248,52.80439454526584,-67.42078105381167,605.7481689453125,1.867904782295227,0.5962379574775696,145.8516082763672,0,0.04001147420696655
1720289288300,1720289295.933447,52.80439454509069,-67.4207810534083,605.7481689453125,1.867134928703308,0.5935974717140198,145.8514404296875,0,0.039599473153841956
1720289288400,1720289296.033342,52.80439454519489,-67.42078105429707,605.7481689453125,1.864945411682129,0.5889129638671875,145.85484313964844,0,0.03942559773565248
1720289288500,1720289296.1334121,52.80439454691193,-67.42078105802467,605.7481689453125,1.8645439147949219,0.5915597081184387,145.85606384277344,0,0.0399898227486417
1720289288600,1720289296.233402,52.80439454818046,-67.42078106073144,605.7481689453125,1.8630752563476562,0.5996597409248352,145.85330200195312,0,0.03933657688595075
1720289288700,1720289296.3334222,52.80439454915627,-67.42078106509047,605.7481689453125,1.863173007965088,0.5956488251686096,145.85594177246094,0,0.039073680473786475
1720289288800,1720289296.433394,52.80439454928156,-67.42078107036603,605.7481689453125,1.8634073734283447,0.5925483703613281,145.85719299316406,0,0.03972158742894507
1720289288900,1720289296.533451,52.804394550484986,-67.42078107832018,605.7481689453125,1.8641003370285034,0.5991597175598145,145.85755920410156,0,0.04077935388802153
1720289289000,1720289296.6334531,52.80439455173374,-67.42078108753041,605.7481689453125,1.864399790763855,0.6047902703285217,145.85589599609375,0,0.041577585999351595
1720289289100,1720289296.733642,52.80439455332765,-67.42078109756014,605.7481689453125,1.8667490482330322,0.5984637141227722,145.8595428466797,0,0.041558715024057974
1720289289200,1720289296.833843,52.80439455450487,-67.42078110581869,605.7481689453125,1.868557095527649,0.5977282524108887,145.86373901367188,0,0.04229575018226614
1720289289300,1720289296.933502,52.804394556324226,-67.42078111579502,605.7481689453125,1.869774341583252,0.6004660129547119,145.860595703125,0,0.042694272232208084
1720289289402,1720289297.033623,52.80439455763291,-67.42078112389288,605.7481689453125,1.8753862380981445,0.5964639186859131,145.85574340820312,0,0.04256487643787163
1720289289500,1720289297.1333928,52.80439455828269,-67.42078112993504,605.7481689453125,1.8728017807006836,0.5933249592781067,145.8553924560547,0,0.04391490826720651
1720289289600,1720289297.2334132,52.80439455575573,-67.42078112759881,605.7481689453125,1.8738040924072266,0.5900263786315918,145.85487365722656,0,0.04361462664808634
1720289289700,1720289297.33345,52.80439455134551,-67.42078112229693,605.7481689453125,1.8690998554229736,0.5921036601066589,145.8516082763672,0,0.042840689662363575
1720289289800,1720289297.4334679,52.80439454559698,-67.42078111292015,605.7481689453125,1.8674565553665161,0.5923689603805542,145.84957885742188,0,0.042202248773998814
1720289289900,1720289297.53347,52.80439453990146,-67.42078110328062,605.7481689453125,1.8726329803466797,0.5912963151931763,145.85382080078125,0,0.0421155655826037
1720289290000,1720289297.633388,52.80439453355858,-67.42078109334096,605.7481689453125,1.8666964769363403,0.5940361022949219,145.8567657470703,0,0.04181594916528017
1720289290100,1720289297.733432,52.804394528728636,-67.42078108331633,605.7481689453125,1.870695948600769,0.5994813442230225,145.857177734375,0,0.04191280573083386
1720289290200,1720289297.833558,52.804394525184534,-67.42078107586934,605.7481689453125,1.8699312210083008,0.6008721590042114,145.85794067382812,0,0.04195863780743156
1720289290300,1720289297.93359,52.80439452309063,-67.42078107256549,605.7481689453125,1.8683267831802368,0.5939490795135498,145.8592071533203,0,0.041333518030267795
1720289290400,1720289298.033909,52.80439452312541,-67.4207810710965,605.7481689453125,1.873679757118225,0.597335159778595,145.8557891845703,0,0.041779180538190824
1720289290500,1720289298.1335402,52.80439452485518,-67.42078107467691,605.7483520507812,1.8739814758300781,0.6053789854049683,145.85630798339844,0,0.04168213870358266
1720289290600,1720289298.2338922,52.80439452555972,-67.4207810759667,605.7483520507812,1.8827602863311768,0.6019054651260376,145.85736083984375,0,0.04106527944874726
1720289290700,1720289298.333459,52.80439452516121,-67.42078107684625,605.7487182617188,1.8765733242034912,0.6018170714378357,145.8558807373047,0,0.041769169480219
1720289290800,1720289298.433443,52.80439452385211,-67.42078107440109,605.7487182617188,1.8786273002624512,0.6078369617462158,145.85546875,0,0.04118883035205553
1720289290900,1720289298.533403,52.804394522481346,-67.42078107416383,605.7487182617188,1.8807560205459595,0.6019444465637207,145.85520935058594,0,0.04119384477055719
1720289291000,1720289298.633395,52.804394521175915,-67.42078107668134,605.7487182617188,1.8756380081176758,0.5844599604606628,145.85552978515625,0,0.041205615272309544
1720289291100,1720289298.733377,52.80439452270488,-67.42078108154719,605.7490234375,1.8848713636398315,0.597774863243103,145.847900390625,0,0.04273751088838551
1720289291200,1720289298.833455,52.80439452357507,-67.42078108934972,605.7490234375,1.880996584892273,0.6118780374526978,145.8431396484375,0,0.0423725102482371
